[
  {
    "id": 1,
    "name": "2.28도서관",
    "code": "127058",
    "address": "대구광역시 중구 2·28길 9",
    "tel": "053-257-2280",
    "fax": "053-257-2284",
    "latitude": 35.8592504,
    "longitude": 128.5894055,
    "homepage": "http://library.daegu.go.kr/228lib/index.do",
    "open_hours": "화~금 09:00~18:00, 토일 09:00~17:00",
    "closed_info": "매주 월요일 / 법정공휴일(일요일을 제외한 관공서 공휴일), 도서관 및 기타 사정으로 위탁기관장이 정하는 날"
  },
  {
    "id": 2,
    "name": "KB국민은행과 함께하는 나무 작은도서관",
    "code": "711618",
    "address": "서울특별시 노원구 동일로 1405",
    "tel": "070-4158-9660",
    "fax": "-",
    "latitude": 37.6538195,
    "longitude": 127.0602181,
    "homepage": "https://www.nowonlib.kr/",
    "open_hours": "평일 09:00 ~ 18:00",
    "closed_info": "매주 토요일, 일요일 / 법정공휴일"
  },
  {
    "id": 3,
    "name": "U보라작은도서관",
    "code": "148096",
    "address": "경상남도 김해시 전하로176번길 71, 반도보라아파트 주민공동시설 2층",
    "tel": "055-324-3335",
    "fax": "-",
    "latitude": 35.223558,
    "longitude": 128.874226,
    "homepage": "http://lib.gimhae.go.kr/01293/01298/00212.web",
    "open_hours": "-",
    "closed_info": "매주 일요일 / 법정공휴일, 임시공휴일"
  },
  {
    "id": 4,
    "name": "가락몰도서관",
    "code": "111456",
    "address": "서울특별시 송파구 양재대로 932",
    "tel": "02-3435-0950",
    "fax": "02-3435-0959",
    "latitude": 37.492994,
    "longitude": 127.112326,
    "homepage": "http://www.splib.or.kr/spalib/",
    "open_hours": "09:00 ~ 18:00",
    "closed_info": "매주 월요일 / 법정공휴일, 기타 도서관 사정에 의해 관장이 정한 날"
  },
  {
    "id": 5,
    "name": "가산도서관",
    "code": "141553",
    "address": "경기도 포천시 가산면 선마로 223",
    "tel": "031-538-3987",
    "fax": "031-538-3985",
    "latitude": 37.8484029,
    "longitude": 127.186356,
    "homepage": "https://lib.pocheon.go.kr/gasan",
    "open_hours": "통합자료실 및 스터디 카페(평일 09:00~20:00 / 주말 09:00~18:00)",
    "closed_info": "매주 월요일 / 근로자의날, 법정공휴일"
  },
  {
    "id": 6,
    "name": "가수원도서관",
    "code": "125010",
    "address": "대전광역시 서구 가수원로 91-11",
    "tel": "042-288-4770",
    "fax": "042-288-5937",
    "latitude": 36.3019,
    "longitude": 127.348812,
    "homepage": "http://www.seogu.go.kr/learning/gasuwonlib/index.do",
    "open_hours": "09:00~22:00",
    "closed_info": "매주 월요일 / 국경일, 정부에서 정한 공휴일, 도서관 사정으로 인한 휴관하는 날"
  },
  {
    "id": 7,
    "name": "가오도서관",
    "code": "125008",
    "address": "대전광역시 동구 동구청로 147",
    "tel": "042-259-7051",
    "fax": "042-224-6171",
    "latitude": 36.3124314,
    "longitude": 127.4553237,
    "homepage": "https://www.donggu.go.kr/dg/lib",
    "open_hours": "08:00~22:00",
    "closed_info": "매주 월요일 / 공휴일, 기타 평생학습과장이 필요하다고 인정되는 경우"
  },
  {
    "id": 8,
    "name": "가온 작은도서관",
    "code": "711613",
    "address": "서울특별시 노원구 노원로 530",
    "tel": "02-2116-2959",
    "fax": "-",
    "latitude": 37.6612653,
    "longitude": 127.0602534,
    "homepage": "https://www.nowonlib.kr/",
    "open_hours": "평일 09:00 ~ 18:00",
    "closed_info": "매주 토요일, 일요일 / 법정공휴일"
  },
  {
    "id": 9,
    "name": "가온누리작은도서관",
    "code": "131059",
    "address": "울산광역시 북구 신천소공원로 15, 108동 1층",
    "tel": "052-292-2774",
    "fax": "-",
    "latitude": 35.6454614,
    "longitude": 129.346506,
    "homepage": "https://usbl.bukgu.ulsan.kr/",
    "open_hours": "-",
    "closed_info": "매주 토요일, 일요일 / 법정공휴일"
  },
  {
    "id": 10,
    "name": "가온도서관",
    "code": "111108",
    "address": "서울특별시 중구 동호로 14길 18",
    "tel": "02-2230-2921",
    "fax": "02-2285-4607",
    "latitude": 37.5563885,
    "longitude": 127.010869,
    "homepage": "https://www.junggulib.or.kr",
    "open_hours": "-",
    "closed_info": "매주 월요일 / 법정공휴일"
  },
  {
    "id": 11,
    "name": "가재울지혜마루 작은도서관",
    "code": "111431",
    "address": "서울특별시 노원구 한글비석로 97",
    "tel": "070-4226-5064",
    "fax": "-",
    "latitude": 37.638647,
    "longitude": 127.0728926,
    "homepage": "https://www.nowonlib.kr/",
    "open_hours": "평일 09:00 ~ 18:00",
    "closed_info": "매주 토요일, 일요일 / 법정공휴일"
  },
  {
    "id": 12,
    "name": "가창면 참꽃 작은도서관",
    "code": "127065",
    "address": "대구광역시 달성군 가창면 가창로220길 8",
    "tel": "053-760-7731",
    "fax": "-",
    "latitude": 35.8023213,
    "longitude": 128.623414,
    "homepage": "http://dalseong.daegu.kr/culture/index.do?menu_id=00001924",
    "open_hours": "-",
    "closed_info": "-"
  },
  {
    "id": 13,
    "name": "가평군 설악도서관",
    "code": "141143",
    "address": "경기도 가평군 설악면 자잠로 65",
    "tel": "031-580-4313",
    "fax": "031-580-2289",
    "latitude": 37.683239,
    "longitude": 127.4908736,
    "homepage": "https://www.gaplib.go.kr",
    "open_hours": "평일 09:00~22:00, 주말 10:00~18:00(자료실 운영기준)",
    "closed_info": "신정, 설연휴, 추석연휴"
  },
  {
    "id": 14,
    "name": "가평군 조종도서관",
    "code": "141105",
    "address": "경기도 가평군 조종면 조종희망로26번길 22",
    "tel": "031-580-4303",
    "fax": "031-580-2329",
    "latitude": 37.818321,
    "longitude": 127.3529165,
    "homepage": "https://www.gaplib.go.kr",
    "open_hours": "평일 09:00~22:00, 주말 10:00~18:00(자료실 운영기준)",
    "closed_info": "신정, 설연휴, 추석연휴"
  },
  {
    "id": 15,
    "name": "가평군 청평도서관",
    "code": "141286",
    "address": "경기도 가평군 청평면 은고개로 31",
    "tel": "031-580-4332",
    "fax": "031-580-4339",
    "latitude": 37.7395914,
    "longitude": 127.4241821,
    "homepage": "https://www.gaplib.go.kr",
    "open_hours": "평일 09:00~22:00, 주말 10:00~18:00(자료실 운영기준)",
    "closed_info": "신정, 설연휴, 추석연휴"
  },
  {
    "id": 16,
    "name": "가평군 한석봉도서관",
    "code": "141001",
    "address": "경기도 가평군 가평읍 문화로 187",
    "tel": "031-580-4679",
    "fax": "031-580-2479",
    "latitude": 37.8248081,
    "longitude": 127.5067831,
    "homepage": "https://www.gaplib.go.kr",
    "open_hours": "평일 09:00~22:00, 주말 10:00~18:00(자료실 운영기준)",
    "closed_info": "신정, 설연휴, 추석연휴"
  },
  {
    "id": 17,
    "name": "갈마도서관",
    "code": "125004",
    "address": "대전광역시 서구 신갈마로127번길 138",
    "tel": "042-288-4740",
    "fax": "042-288-5936",
    "latitude": 36.3409156,
    "longitude": 127.3656805,
    "homepage": "http://www.seogu.go.kr/learning/galmalib/index.do",
    "open_hours": "09:00~22:00",
    "closed_info": "매주 월요일 / 국경일, 정부에서 정한 공휴일, 도서관 사정으로 인한 휴관하는 날"
  },
  {
    "id": 18,
    "name": "갈산도서관",
    "code": "111463",
    "address": "서울특별시 양천구 목동남로4길 48-6",
    "tel": "02-2645-5919",
    "fax": "02-2652-9260",
    "latitude": 37.5089368,
    "longitude": 126.8671234,
    "homepage": "https://lib.yangcheon.or.kr/libgalsan",
    "open_hours": "평일 09:00~22:00 / 주말 09:00~18:00",
    "closed_info": "매주 월요일 / 법정휴일"
  },
  {
    "id": 19,
    "name": "갈현1동문화의집",
    "code": "711308",
    "address": "서울특별시 은평구 갈현로 301",
    "tel": "02-351-5108",
    "fax": "-",
    "latitude": 37.62397,
    "longitude": 126.916586,
    "homepage": "http://lib.eplib.or.kr/",
    "open_hours": "-",
    "closed_info": "매주 일요일 / 법정공휴일, 기타 도서관 사정에 의한 임시 휴관일"
  },
  {
    "id": 20,
    "name": "감곡도서관",
    "code": "143124",
    "address": "충청북도 음성군 감곡면 장감로131번길 8",
    "tel": "043-871-4991",
    "fax": "043-871-1925",
    "latitude": 37.1196808,
    "longitude": 127.6371611,
    "homepage": "https://lib.eumseong.go.kr/",
    "open_hours": "평일 09:00~22:00, 주말 09:00~18:00",
    "closed_info": "매주 월요일 / 법정공휴일"
  },
  {
    "id": 21,
    "name": "강남구립개포하늘꿈도서관",
    "code": "111526",
    "address": "서울특별시 강남구 개포로110길 54",
    "tel": "02-451-1511",
    "fax": "02-451-1512",
    "latitude": 37.4906808,
    "longitude": 127.0803687,
    "homepage": "https://library.gangnam.go.kr/hnkklib",
    "open_hours": "평일 09:00~18:00, 주말 09:00~17:00",
    "closed_info": "매주 화요일 / 법정공휴일"
  },
  {
    "id": 22,
    "name": "강남구립논현도서관",
    "code": "111070",
    "address": "서울특별시 강남구 학동로43길 17",
    "tel": "02-3443-7650",
    "fax": "02-542-6459",
    "latitude": 37.5173333,
    "longitude": 127.0372,
    "homepage": "https://library.gangnam.go.kr/nhlib",
    "open_hours": "자료실(평일 09:00~22:00, 주말 09:00~17:00) 열람실(평일/주말 07:00~22:00)",
    "closed_info": "매주 화요일 / 일요일을 제외한 법정공휴일"
  },
  {
    "id": 23,
    "name": "강남구립대치도서관",
    "code": "111039",
    "address": "서울특별시 강남구 삼성로 212, 은마아파트 복지상가 2층 215호",
    "tel": "02-565-6666",
    "fax": "02-554-6666",
    "latitude": 37.4953832,
    "longitude": 127.063706,
    "homepage": "https://library.gangnam.go.kr/dchlib",
    "open_hours": "자료실(월~금:09:00~21:00/ 토·일: 09:00~17:00), 열람실(월~일: 06:00~21:00)",
    "closed_info": "매주 화요일 / 법정공휴일"
  },
  {
    "id": 24,
    "name": "강남구립도곡정보문화도서관",
    "code": "111347",
    "address": "서울특별시 강남구 도곡로18길 57",
    "tel": "1644-3227",
    "fax": "02-529-0377",
    "latitude": 37.4882371,
    "longitude": 127.0392707,
    "homepage": "https://library.gangnam.go.kr/dogoklib/",
    "open_hours": "평일 09:00~22:00, 주말 09:00~17:00",
    "closed_info": "매주 월요일 / 법정공휴일, 관장이 필요하다고 인정하는 날"
  },
  {
    "id": 25,
    "name": "강남구립못골도서관",
    "code": "111479",
    "address": "서울특별시 강남구 자곡로 116",
    "tel": "02-459-5522",
    "fax": "-",
    "latitude": 37.471524,
    "longitude": 127.096698,
    "homepage": "https://library.gangnam.go.kr/mglib",
    "open_hours": "-",
    "closed_info": "매주 화요일 / 법정공휴일"
  },
  {
    "id": 26,
    "name": "강남구립못골한옥어린이도서관",
    "code": "111474",
    "address": "서울특별시 강남구 자곡로 7길 3",
    "tel": "02-2226-5930",
    "fax": "02-2226-5931",
    "latitude": 37.473163,
    "longitude": 127.099305,
    "homepage": "https://library.gangnam.go.kr/hchildlib",
    "open_hours": "-",
    "closed_info": "매주 월요일 / 일요일을 제외한 법정공휴일"
  },
  {
    "id": 27,
    "name": "강남구립역삼도서관",
    "code": "111103",
    "address": "서울특별시 강남구 역삼로7길 16",
    "tel": "02-508-1139",
    "fax": "02-508-1139",
    "latitude": 37.4952602,
    "longitude": 127.033191,
    "homepage": "https://library.gangnam.go.kr/yslib",
    "open_hours": "자료실(평일 09:00~22:00, 주말 09:00~17:00), 열람실(평일/주말 07:00~22:00)",
    "closed_info": "매주 월요일 / 일요일을 제외한 법정공휴일"
  },
  {
    "id": 28,
    "name": "강남구립역삼푸른솔도서관",
    "code": "111127",
    "address": "서울특별시 강남구 테헤란로8길 36",
    "tel": "02-2051-1178",
    "fax": "02-2051-1178",
    "latitude": 37.4964736,
    "longitude": 127.031856,
    "homepage": "https://library.gangnam.go.kr/ysplib",
    "open_hours": "자료실(평일) 09:00~18:00, (주말) 09:00~17:00 / 집중학습실(평일/주말) 07:00~22:00",
    "closed_info": "매주 화요일 / 일요일을 제외한 법정공휴일 / 1/27(월)~1/30(목)"
  },
  {
    "id": 29,
    "name": "강남구립열린도서관",
    "code": "711265",
    "address": "서울특별시 강남구 일원로 115, 삼성생명빌딩 B동 203호",
    "tel": "02-3412-3970",
    "fax": "-",
    "latitude": 37.483932,
    "longitude": 127.084402,
    "homepage": "https://library.gangnam.go.kr/yllib",
    "open_hours": "평일 오전 9시~오후 10시, 주말 오전 9시~오후5시",
    "closed_info": "매주 월요일 / 일요일을 제외한 법정공휴일"
  },
  {
    "id": 30,
    "name": "강남구립일원라온영어도서관",
    "code": "111518",
    "address": "서울특별시 강남구 영동대로 22, 지하 1층",
    "tel": "02-6712-0595~6",
    "fax": "02-445-0850",
    "latitude": 37.4817136,
    "longitude": 127.0822397,
    "homepage": "https://library.gangnam.go.kr/englib",
    "open_hours": "평일 09:00~18:00, 주말 09:00~17:00",
    "closed_info": "매주 월요일 / 법정공휴일"
  },
  {
    "id": 31,
    "name": "강남구립정다운도서관",
    "code": "111073",
    "address": "서울특별시 강남구 학동로67길 11",
    "tel": "02-512-9326",
    "fax": "-",
    "latitude": 37.5190642,
    "longitude": 127.046371,
    "homepage": "https://library.gangnam.go.kr/jdwlib",
    "open_hours": "평일: 09시-22시 주말: 09시-17시",
    "closed_info": "매주 화요일 / 일요일을 제외한 법정공휴일"
  },
  {
    "id": 32,
    "name": "강남구립즐거운도서관",
    "code": "111056",
    "address": "서울특별시 강남구 도곡로77길 23, 4층",
    "tel": "02-565-7533",
    "fax": "02-563-7383",
    "latitude": 37.4997257,
    "longitude": 127.057818,
    "homepage": "https://library.gangnam.go.kr/jgwlib",
    "open_hours": "일반자료실 및 어린이자료실 (평일)09:00-22:00 / (주말)09:00-17:00",
    "closed_info": "매주 월요일 / 일요일을 제외한 법정공휴일"
  },
  {
    "id": 33,
    "name": "강남구립청담도서관",
    "code": "111069",
    "address": "서울특별시 강남구 압구정로79길 26",
    "tel": "02-540-7042",
    "fax": "02-540-7043",
    "latitude": 37.5250583,
    "longitude": 127.0493,
    "homepage": "https://library.gangnam.go.kr/cdlib",
    "open_hours": "평일 - 09:00~22:00, 주말 - 09:00~17:00",
    "closed_info": "매주 월요일 / 일요일을 제외한 법정공휴일"
  },
  {
    "id": 34,
    "name": "강남구립행복한도서관",
    "code": "111075",
    "address": "서울특별시 강남구 영동대로65길 24, 대치2문화센터 3층",
    "tel": "02-567-3833",
    "fax": "02-565-3834",
    "latitude": 37.5022554,
    "longitude": 127.06415,
    "homepage": "https://library.gangnam.go.kr/happylib",
    "open_hours": "평일: 자료실(09:00~22:00) / 토,일: 자료실(09:00~17:00) ※ 사회적 거리두기 방침에 따라 운영시간 변동이 있으니 공지사항을 꼭 확인바랍니다.",
    "closed_info": "매주 화요일 / 일요일을 제외한 법정공휴일"
  },
  {
    "id": 35,
    "name": "강동구립강일도서관",
    "code": "111125",
    "address": "서울특별시 강동구 아리수로93길 9-14, 5층",
    "tel": "02-427-4004",
    "fax": "02-427-0588",
    "latitude": 37.5650504,
    "longitude": 127.1738009,
    "homepage": "http://www.gdlibrary.or.kr/gilib",
    "open_hours": "평일 : 9시 ~ 22시 (어린이자료실 18시, 종합자료실 22시) / 주말 9시 ~17시",
    "closed_info": "매주 화요일 / 법정공휴일(일요일 제외)"
  },
  {
    "id": 36,
    "name": "강동구립둔촌도서관",
    "code": "111501",
    "address": "서울특별시 강동구 동남로49길 21-8",
    "tel": "02-489-6557~8",
    "fax": "02-489-6559",
    "latitude": 37.5315801,
    "longitude": 127.1483305,
    "homepage": "https://www.gdlibrary.or.kr",
    "open_hours": "평일 09:00~18:00, 주말 09:00~17:00",
    "closed_info": "매주 화요일 / 법정공휴일"
  },
  {
    "id": 37,
    "name": "강동구립성내도서관",
    "code": "111078",
    "address": "서울특별시 강동구 성안로 106-1",
    "tel": "02-471-0044",
    "fax": "02-471-1072",
    "latitude": 37.5327964,
    "longitude": 127.1333283,
    "homepage": "http://www.gdlibrary.or.kr/snlib",
    "open_hours": "평일 : 9시 ~ 18시 (종합자료실 22시까지) / 주말 9시 ~17시",
    "closed_info": "매주 월요일 / 법정공휴일(일요일 제외)"
  },
  {
    "id": 38,
    "name": "강동구립암사도서관",
    "code": "111176",
    "address": "서울특별시 강동구 고덕로20길 42",
    "tel": "02-429-0476",
    "fax": "02-429-0471",
    "latitude": 37.5528007,
    "longitude": 127.1333457,
    "homepage": "http://www.gdlibrary.or.kr/aslib",
    "open_hours": "평일 : 9시 ~ 18시 (종합자료실 22시) / 주말 9시 ~17시",
    "closed_info": "매주 월요일 / 법정공휴일(일요일 제외)"
  },
  {
    "id": 39,
    "name": "강동구립천호도서관",
    "code": "111470",
    "address": "서울특별시 강동구 성안로 31마길 1, 2층",
    "tel": "02-488-7223",
    "fax": "02-488-7225",
    "latitude": 37.5408046,
    "longitude": 127.1338987,
    "homepage": "http://www.gdlibrary.or.kr/chlib",
    "open_hours": "평일 : 9시 ~ 18시 / 주말 9시 ~17시",
    "closed_info": "매주 월요일 / 법정공휴일(일요일 제외)"
  },
  {
    "id": 40,
    "name": "강동구립해공도서관",
    "code": "111101",
    "address": "서울특별시 강동구 올림픽로 702",
    "tel": "02-478-9656",
    "fax": "02-478-9658",
    "latitude": 37.5443685,
    "longitude": 127.126709,
    "homepage": "http://www.gdlibrary.or.kr/hglib",
    "open_hours": "평일 : 9시 ~ 18시 (종합자료실 22시) / 주말 9시 ~17시",
    "closed_info": "매주 화요일 / 법정공휴일(일요일 제외)"
  },
  {
    "id": 41,
    "name": "강동바다도서관",
    "code": "131084",
    "address": "울산광역시 북구 산하중앙3로 62",
    "tel": "052-241-7480",
    "fax": "052-241-7489",
    "latitude": 35.632014,
    "longitude": 129.4378682,
    "homepage": "https://usbl.bukgu.ulsan.kr",
    "open_hours": "평일 09:00~20:00, 주말 09:00~18:00",
    "closed_info": "매주 월요일 / 법정공휴일"
  },
  {
    "id": 42,
    "name": "강북문화정보도서관",
    "code": "111037",
    "address": "서울특별시 강북구 오현로 145",
    "tel": "02-944-3100",
    "fax": "02-944-3139",
    "latitude": 37.6248352,
    "longitude": 127.0360823,
    "homepage": "https://www.gblib.or.kr/gangbuk/",
    "open_hours": "자료실: 평일 09:00-22:00, 주말 09:00-17:00 / 열람실: 07:00-22:00",
    "closed_info": "매월 둘째주, 넷째주 월요일 / 정부지정 공휴일, 특별한 사유로 관장이 필요하다고 인정한 경우"
  },
  {
    "id": 43,
    "name": "강북청소년문화정보도서관",
    "code": "111038",
    "address": "서울특별시 강북구 삼양로54길 68",
    "tel": "02-944-3140",
    "fax": "02-944-3149",
    "latitude": 37.6230299,
    "longitude": 127.0215671,
    "homepage": "https://www.gblib.or.kr/youth/",
    "open_hours": "자료실: 평일 09:00-18:00, 주말 09:00-17:00 / 열람실: 07:00-22:00",
    "closed_info": "매월 둘째주, 넷째주 월요일 / 정부지정 공휴일, 특별한 사유로 관장이 필요하다고 인정한 경우"
  },
  {
    "id": 44,
    "name": "강서구립가양도서관",
    "code": "111453",
    "address": "서울특별시 강서구 양천로61길 101",
    "tel": "02-3665-8797",
    "fax": "02-3665-0235",
    "latitude": 37.559397,
    "longitude": 126.8653386,
    "homepage": "http://lib.gangseo.seoul.kr/",
    "open_hours": "어린이자료실=월~목, 토~일 9:00~18:00 / 종합자료실=월~목, 토 9:00~22:00, 일 9:00~18:00 / 학습열람실=월~목, 토~일 7:00~22:00",
    "closed_info": "매주 금요일 / 일요일을 제외한 법정공휴일(단, 일요일과 법정공휴일이 겹칠 경우 휴관)"
  },
  {
    "id": 45,
    "name": "강서구립곰달래도서관",
    "code": "111378",
    "address": "서울특별시 강서구 강서로5길 50",
    "tel": "02-2065-3785",
    "fax": "02-2065-3799",
    "latitude": 37.5291122,
    "longitude": 126.8490778,
    "homepage": "http://lib.gangseo.seoul.kr/",
    "open_hours": "6층 종합자료실 : 09:00~22:00(월요일~목요일, 토요일), 09:00~20:00(일요일) / 5층 어린이자료실 : 09:00~18:00(월요일~목요일, 토요일~일요일) / 6층 열람실 : 07:00~22:00 (월요일~목요일, 토요일~일요일)",
    "closed_info": "매주 금요일 / 법정공휴일"
  },
  {
    "id": 46,
    "name": "강서구립길꽃어린이도서관",
    "code": "111067",
    "address": "서울특별시 강서구 금낭화로24길 5",
    "tel": "02-2663-4764",
    "fax": "02-2663-4766",
    "latitude": 37.5786886,
    "longitude": 126.8138658,
    "homepage": "http://lib.gangseo.seoul.kr/",
    "open_hours": "2층 유아자료실 : 화~일 9:00~18:00 / 3층 아동자료실 : 화~토 9:00~22:00, 일 9:00~18:00",
    "closed_info": "매주 월요일 / 일요일을 제외한 법정공휴일(단, 일요일과 법정공휴일이 겹칠 경우 휴관)"
  },
  {
    "id": 47,
    "name": "강서구립꿈꾸는어린이도서관",
    "code": "111098",
    "address": "서울특별시 강서구 공항대로 615",
    "tel": "02-3663-4025",
    "fax": "02-3663-4024",
    "latitude": 37.5473333,
    "longitude": 126.8731625,
    "homepage": "http://lib.gangseo.seoul.kr/",
    "open_hours": "3층 꿈동이자료실 : 화~일 9:00~18:00 / 4층 꿈돌이자료실 : 화~토 9:00~22:00, 일 9:00~18:00",
    "closed_info": "매주 월요일 / 일요일을 제외한 법정공휴일(단, 일요일과 법정공휴일이 겹칠 경우 휴관)"
  },
  {
    "id": 48,
    "name": "강서구립등빛도서관",
    "code": "111309",
    "address": "서울특별시 강서구 강서로62길 48",
    "tel": "02-3664-6990",
    "fax": "02-3664-8045",
    "latitude": 37.5624339,
    "longitude": 126.8423536,
    "homepage": "http://lib.gangseo.seoul.kr/",
    "open_hours": "3층 문헌정보실(일반자료실) : 화~일요일 09:00~22:00 / 2층 어린이자료실 : 화~일요일 09:00 ~ 18:00 / 4층 일반열람실 : 화~일요일 07:00~22:00",
    "closed_info": "매주 월요일 / 법정공휴일"
  },
  {
    "id": 49,
    "name": "강서구립우장산숲속도서관",
    "code": "111118",
    "address": "서울특별시 강서구 우현로 34",
    "tel": "02-2696-6689",
    "fax": "02-2696-6692",
    "latitude": 37.5484267,
    "longitude": 126.8418183,
    "homepage": "http://lib.gangseo.seoul.kr/",
    "open_hours": "앵두나무실 : 화~일 9:00~18:00 / 포도나무실,소나무실 : 화~토 9:00~22:00, 일 9:00~18:00",
    "closed_info": "매주 월요일 / 일요일을 제외한 법정공휴일(단, 일요일과 법정공휴일이 겹칠 경우 휴관)"
  },
  {
    "id": 50,
    "name": "강서구립푸른들청소년도서관",
    "code": "111097",
    "address": "서울특별시 강서구 강서로45다길 71",
    "tel": "02-2691-1630",
    "fax": "02-2691-1632",
    "latitude": 37.544683,
    "longitude": 126.8351,
    "homepage": "http://lib.gangseo.seoul.kr/",
    "open_hours": "평일 09:00 ~ 18:00(야간22:00) / 토 09:00 ~ 18:00(야간22:00) /일 09:00~18:00",
    "closed_info": "매주 금요일 / 일요일을 제외한 법정공휴일(단, 일요일과 법정공휴일이 겹칠 경우 휴관)"
  },
  {
    "id": 277,
    "name": "구지면 작은도서관",
    "code": "727011",
    "address": "대구광역시 달성군 구지면 창리로11길 90",
    "tel": "053-614-0985",
    "fax": "-",
    "latitude": 35.6604264,
    "longitude": 128.415043,
    "homepage": "http://dalseong.daegu.kr/culture/index.do?menu_id=00001928",
    "open_hours": "-",
    "closed_info": "-"
  },
  {
    "id": 51,
    "name": "강서영어도서관",
    "code": "111373",
    "address": "서울특별시 강서구 곰달래로57가길 26",
    "tel": "02-2061-2270",
    "fax": "02-2061-2276",
    "latitude": 37.5349763,
    "longitude": 126.8604366,
    "homepage": "http://lib.gangseo.seoul.kr/",
    "open_hours": "09:00~22:00(화~토요일) / 09:00~18:00(일요일)",
    "closed_info": "매주 월요일 / 법정공휴일"
  },
  {
    "id": 52,
    "name": "강원특별자치도교육청 강릉교육문화관",
    "code": "142001",
    "address": "강원특별자치도 강릉시 노암등길 37-1",
    "tel": "033-640-9941",
    "fax": "033-640-9905",
    "latitude": 37.745942,
    "longitude": 128.9000051,
    "homepage": "https://lib.gwe.go.kr/gnecc",
    "open_hours": "자료실(09:00~18:00), 열람실(08:00~23:00)",
    "closed_info": "매주 월요일 / 법정공휴일, 임시 휴관일"
  },
  {
    "id": 53,
    "name": "강원특별자치도교육청 고성교육도서관",
    "code": "142003",
    "address": "강원특별자치도 고성군 거진읍 거탄진로29번길 7",
    "tel": "033-682-4886",
    "fax": "033-682-5204",
    "latitude": 38.4392611,
    "longitude": 128.4500889,
    "homepage": "https://lib.gwe.go.kr/gslib",
    "open_hours": "09:00~18:00",
    "closed_info": "매주 월요일 / 법정공휴일(단, 일요일은 개관하되 다른 공휴일이 일요일과 겹칠때는 휴관), 장서점검, 시설보수 등 도서관장이 필요하다고 인정하는 날"
  },
  {
    "id": 54,
    "name": "강원특별자치도교육청 동해교육도서관",
    "code": "142089",
    "address": "강원특별자치도 동해시 부곡5길 22",
    "tel": "033-533-4436",
    "fax": "033-533-4441",
    "latitude": 37.5384865,
    "longitude": 129.109787,
    "homepage": "https://lib.gwe.go.kr/dhlib",
    "open_hours": "평일, 주말 09:00~18:00 (일반열람실 08:00~23:00)",
    "closed_info": "매주 월요일 / 관공서 공휴일, 교육도서관 사정으로 관장이 필요하다고 인정하는 경우"
  },
  {
    "id": 55,
    "name": "강원특별자치도교육청 명주교육도서관",
    "code": "142006",
    "address": "강원특별자치도 강릉시 주문진읍 해안3길 11",
    "tel": "033-660-6907",
    "fax": "033-662-6585",
    "latitude": 37.8867734,
    "longitude": 128.8263907,
    "homepage": "https://lib.gwe.go.kr/mjlib",
    "open_hours": "09:00~23:00",
    "closed_info": "매주 월요일 / 법정공휴일, 기타 관장이 필요하다고 인정하는 날"
  },
  {
    "id": 56,
    "name": "강원특별자치도교육청 문막교육도서관",
    "code": "142007",
    "address": "강원특별자치도 원주시 문막읍 문막시장1길 76-6",
    "tel": "033-735-3682",
    "fax": "033-735-3681",
    "latitude": 37.3050229,
    "longitude": 127.8146418,
    "homepage": "https://lib.gwe.go.kr/mmlib",
    "open_hours": "평일/주말 09:00~18:00",
    "closed_info": "매주 월요일 / 공휴일, 관장이 지정하는 날"
  },
  {
    "id": 57,
    "name": "강원특별자치도교육청 삼척교육문화관",
    "code": "142008",
    "address": "강원특별자치도 삼척시 진주로 48-41",
    "tel": "종합자료실: 033-570-5530~1 / 어린이자료실: 033-570-5533~4 / 문",
    "fax": "033-570-5501",
    "latitude": 37.445145,
    "longitude": 129.1650073,
    "homepage": "https://lib.gwe.go.kr/samecc",
    "open_hours": "종합&middot;어린이&middot;디지털자료실 09:00~18:00",
    "closed_info": "매주 월요일 / 관공서공휴일, 특별한 사유 발생시 관장이 지정한 날"
  },
  {
    "id": 58,
    "name": "강원특별자치도교육청 속초교육도서관",
    "code": "142010",
    "address": "강원특별자치도 속초시 번영로 15",
    "tel": "033-636-1495",
    "fax": "033-636-1497",
    "latitude": 38.2026986,
    "longitude": 128.5804605,
    "homepage": "https://lib.gwe.go.kr/sclib",
    "open_hours": "08:00~23:00",
    "closed_info": "매주 일요일 / 법정공휴일, 기타 관장이 필요하다고 인정하는 날"
  },
  {
    "id": 59,
    "name": "강원특별자치도교육청 양구교육도서관",
    "code": "142011",
    "address": "강원특별자치도 양구군 양구읍 우정로119번길 30",
    "tel": "033-482-0284",
    "fax": "033-482-0804",
    "latitude": 38.101864,
    "longitude": 127.9874258,
    "homepage": "https://lib.gwe.go.kr/yglib",
    "open_hours": "08:00~11:00",
    "closed_info": "매주 월요일 / 국경일"
  },
  {
    "id": 60,
    "name": "강원특별자치도교육청 양양교육도서관",
    "code": "142012",
    "address": "강원특별자치도 양양군 양양읍 남문로 50",
    "tel": "033-672-2679",
    "fax": "033-672-2689",
    "latitude": 38.0758946,
    "longitude": 128.618285,
    "homepage": "https://lib.gwe.go.kr/yylib",
    "open_hours": "08:00~23:00",
    "closed_info": "매주 월요일 / 국경일, 기타 관장이 필요하다고 인정하는 날"
  },
  {
    "id": 61,
    "name": "강원특별자치도교육청 영월교육도서관",
    "code": "142013",
    "address": "강원특별자치도 영월군 영월읍 영월로 1914-7",
    "tel": "033-373-9315",
    "fax": "033-373-3088",
    "latitude": 37.1802997,
    "longitude": 128.4588221,
    "homepage": "https://lib.gwe.go.kr/ywlib",
    "open_hours": "평일(09:00~18:00), 주말(09:00~18:00)",
    "closed_info": "매주 월요일 / 일요일을 제외한 관공서의 공휴일"
  },
  {
    "id": 62,
    "name": "강원특별자치도교육청 원주교육문화관",
    "code": "142014",
    "address": "강원특별자치도 원주시 북원로 2312",
    "tel": "033-737-1001",
    "fax": "033-737-1099",
    "latitude": 37.3517321,
    "longitude": 127.9359125,
    "homepage": "https://lib.gwe.go.kr/wjecc",
    "open_hours": "종합자료실 09:00~18:00 / 어린이자료실 09:00~18:00 / 상상마당 10:00~18:00 / 디지털자료실 09:00~18:00 / 열람실 08:00~23:00",
    "closed_info": "매주 월요일 / 정부가 정한 휴일(단, 일요일과 공휴일이 겹치는 경우에는 휴관), 관장이 특별히 지정하여 공고하는 날"
  },
  {
    "id": 63,
    "name": "강원특별자치도교육청 인제교육도서관",
    "code": "142016",
    "address": "강원특별자치도 인제군 인제읍 인제로193번길 15-1",
    "tel": "033-460-1077",
    "fax": "033-460-1078",
    "latitude": 38.0702268,
    "longitude": 128.1706713,
    "homepage": "https://lib.gwe.go.kr/ijlib",
    "open_hours": "09:00~18:00",
    "closed_info": "매주 월요일 / 법정공휴일, 특별한 사유로 관장이 지정하는 날"
  },
  {
    "id": 64,
    "name": "강원특별자치도교육청 정선교육도서관",
    "code": "142017",
    "address": "강원특별자치도 정선군 정선읍 봉양4길 9",
    "tel": "033-563-5330",
    "fax": "033-563-5332",
    "latitude": 37.3782494,
    "longitude": 128.6613918,
    "homepage": "https://lib.gwe.go.kr/jslib",
    "open_hours": "자료실 09:00~18:00 / 열람실 08:00~23:00",
    "closed_info": "매주 월요일 / 국가 지정 공휴일, 교육도서관장이 필요에 의하여 지정한 날"
  },
  {
    "id": 65,
    "name": "강원특별자치도교육청 철원교육도서관",
    "code": "142018",
    "address": "강원특별자치도 철원군 철원읍 금학로273번길 21-14",
    "tel": "033-455-6928",
    "fax": "033-455-4937",
    "latitude": 38.2106209,
    "longitude": 127.2122376,
    "homepage": "https://lib.gwe.go.kr/cwlib",
    "open_hours": "09:00~18:00",
    "closed_info": "매주 월요일 / 공휴일, 기타 관장이 필요하다고 지정하는 날"
  },
  {
    "id": 66,
    "name": "강원특별자치도교육청 춘성교육도서관",
    "code": "142019",
    "address": "강원특별자치도 춘천시 신북읍 신샘밭로 359-32",
    "tel": "033-242-6636",
    "fax": "033-243-6637",
    "latitude": 37.9273184,
    "longitude": 127.7506508,
    "homepage": "https://lib.gwe.go.kr/cslib",
    "open_hours": "08:00~23:00",
    "closed_info": "매주 월요일 / 법정공휴일, 교육도서관 및 기타 사정으로 교육도서관이 정하는 날"
  },
  {
    "id": 67,
    "name": "강원특별자치도교육청 춘천교육문화관",
    "code": "142021",
    "address": "강원특별자치도 춘천시 중앙로107번길 14",
    "tel": "033-258-2500",
    "fax": "033-251-8387",
    "latitude": 37.8757842,
    "longitude": 127.7241858,
    "homepage": "https://lib.gwe.go.kr/chuncheonecc",
    "open_hours": "자료실 09:00~18:00, 열람실 08:00~23:00",
    "closed_info": "매주 월요일 / 법정공휴일, 기타 관장이 임시로 정하는 날"
  },
  {
    "id": 68,
    "name": "강원특별자치도교육청 태백교육도서관",
    "code": "142023",
    "address": "강원특별자치도 태백시 태백로 1126",
    "tel": "033-553-1237",
    "fax": "033-553-1230",
    "latitude": 37.1578745,
    "longitude": 128.989316,
    "homepage": "https://lib.gwe.go.kr/tblib",
    "open_hours": "평일 9:00-18:00, 주말 9:00-18:00",
    "closed_info": "매주 월요일 / 관공서 공휴일, 교육도서관 사정으로 인하여 관장이 필요하다고 인정하는 경우"
  },
  {
    "id": 69,
    "name": "강원특별자치도교육청 평창교육도서관",
    "code": "142024",
    "address": "강원특별자치도 평창군 평창읍 평창중앙로 83-17",
    "tel": "033-332-2615",
    "fax": "033-334-2907",
    "latitude": 37.3696066,
    "longitude": 128.3943975,
    "homepage": "https://lib.gwe.go.kr/pclib",
    "open_hours": "종합자료실, 디지털자료실 화~일 09:00~18:00",
    "closed_info": "매주 월요일 / 관공서의 공휴일, 기타 관장이 임시로 정하는 날"
  },
  {
    "id": 70,
    "name": "강원특별자치도교육청 홍천교육도서관",
    "code": "142025",
    "address": "강원특별자치도 홍천군 홍천읍 꽃뫼로 93",
    "tel": "033-434-3236",
    "fax": "033-434-3987",
    "latitude": 37.6916857,
    "longitude": 127.8839978,
    "homepage": "https://lib.gwe.go.kr/hclib",
    "open_hours": "08:00~23:00",
    "closed_info": "매주 월요일 / 법정공휴일, 교육도서관 및 기타 사정으로 교육도서관장이 정하는 날"
  },
  {
    "id": 71,
    "name": "강원특별자치도교육청 화천교육도서관",
    "code": "142026",
    "address": "강원특별자치도 화천군 화천읍 상승로3길 22",
    "tel": "033-441-6343",
    "fax": "033-441-6344",
    "latitude": 38.1074923,
    "longitude": 127.7042923,
    "homepage": "https://lib.gwe.go.kr/hwlib",
    "open_hours": "종합&middot;디지털자료실 화~일 09:00~18:00 / 학습실 08:00~23:00",
    "closed_info": "매주 월요일 / 관공서의 공휴일(공휴일이 일요일과 겹칠때는 휴관), 교육도서관장이 지정하는 날"
  },
  {
    "id": 72,
    "name": "강원특별자치도교육청 횡성교육도서관",
    "code": "142027",
    "address": "강원특별자치도 횡성군 횡성읍 교항로 32",
    "tel": "033-344-6591",
    "fax": "033-343-6591",
    "latitude": 37.4871586,
    "longitude": 127.9795054,
    "homepage": "https://lib.gwe.go.kr/hslib",
    "open_hours": "08:00~23:00",
    "closed_info": "매주 월요일 / 일요일을 제외한 국가 지정공휴일, 관장이 필요하다고 인정하는 날"
  },
  {
    "id": 101,
    "name": "경산시립장산도서관",
    "code": "147165",
    "address": "경상북도 경산시 경산로 13길 7",
    "tel": "053-816-2240",
    "fax": "-",
    "latitude": 35.8142997,
    "longitude": 128.7311778,
    "homepage": "https://lib.gbgs.go.kr/",
    "open_hours": "09:00~19:00",
    "closed_info": "매주 화요일 / 국경일, 공휴일, 기타 장서점검 등 필요한 사유가 발생시 임시휴관"
  },
  {
    "id": 73,
    "name": "강원특별자치도교육청속초교육문화관",
    "code": "142009",
    "address": "강원특별자치도 속초시 번영로 82",
    "tel": "033-630-0204",
    "fax": "033-635-9028",
    "latitude": 38.2063896,
    "longitude": 128.5861305,
    "homepage": "https://lib.gwe.go.kr/sokecc",
    "open_hours": "종합자료실:09:00~18:00 / 어린이자료실:09:00~18:00 / 디지털자료실:09:00~18:00 / 학습실:08:00~23:00",
    "closed_info": "매주 월요일 / 정부가 정한 휴일(단, 일요일과 공휴일이 겹치는 경우에는 휴관), 관장이 특별히 지정하여 공고하는 날"
  },
  {
    "id": 74,
    "name": "강진군도서관",
    "code": "146001",
    "address": "전라남도 강진군 강진읍 남문길 10",
    "tel": "061-430-3832",
    "fax": "061-430-3839",
    "latitude": 34.640635,
    "longitude": 126.7695711,
    "homepage": "http://www.gjlib.go.kr",
    "open_hours": "09:00~22:00",
    "closed_info": "일요일을 제외한 법정공휴일, 개관기념일"
  },
  {
    "id": 75,
    "name": "개봉도서관",
    "code": "111216",
    "address": "서울특별시 구로구 개봉로16길 30-11",
    "tel": "02-2689-1695",
    "fax": "02-2689-1696",
    "latitude": 37.4897388,
    "longitude": 126.8583705,
    "homepage": "https://lib.guro.go.kr",
    "open_hours": "평일 09:00~22:00, 주말 09:00~17:00",
    "closed_info": "매주 화요일 / 법정공휴일"
  },
  {
    "id": 76,
    "name": "개울건강도서관",
    "code": "111240",
    "address": "서울특별시 양천구 중앙로52길 56",
    "tel": "02-2603-5919",
    "fax": "02-2696-8909",
    "latitude": 37.5259388,
    "longitude": 126.8566029,
    "homepage": "https://lib.yangcheon.or.kr/libgaeul",
    "open_hours": "평일 09:00~22:00 / 주말 09:00~18:00",
    "closed_info": "매주 일요일 / 법정휴일"
  },
  {
    "id": 77,
    "name": "개포4동작은도서관",
    "code": "11134706",
    "address": "서울특별시 강남구 개포로24길 33",
    "tel": "02-3423-7884",
    "fax": "-",
    "latitude": 37.4787976,
    "longitude": 127.051507,
    "homepage": "http://gp4lib.gangnam.go.kr/",
    "open_hours": "평일(월~금) 09:00~17:00",
    "closed_info": "매주 토요일, 일요일 / 법정공휴일"
  },
  {
    "id": 78,
    "name": "거마도서관",
    "code": "111049",
    "address": "서울특별시 송파구 거마로2길 19",
    "tel": "02-449-2332",
    "fax": "02-449-5932",
    "latitude": 37.4935096,
    "longitude": 127.1468394,
    "homepage": "https://www.splib.or.kr/spglib/",
    "open_hours": "평일 9:00 ~ 22:00 / 주말 9:00 ~ 20:00 / 어린이자료실: 9:00 ~ 18:00 (평일, 주말)",
    "closed_info": "매주 월요일 / 법정공휴일(일요일 제외), 기타 도서관 사정에 의해 관장이 정한 날"
  },
  {
    "id": 79,
    "name": "거제시립수양도서관",
    "code": "148302",
    "address": "경상남도 거제시 제산로5길 26",
    "tel": "055-639-3891",
    "fax": "055-639-3899",
    "latitude": 34.8877852,
    "longitude": 128.6462266,
    "homepage": "https://lib.geoje.go.kr",
    "open_hours": "09:00 ~ 18:00",
    "closed_info": "매주 월요일 / 법정공휴일"
  },
  {
    "id": 80,
    "name": "거제시립아주도서관",
    "code": "148317",
    "address": "경상남도 거제시 탑곡로 73, 4층",
    "tel": "055-639-7320",
    "fax": "-",
    "latitude": 34.8633998,
    "longitude": 128.6938561,
    "homepage": "https://lib.geoje.go.kr/",
    "open_hours": "평일 09:00~22:00(자료실은 18시) / 주말 09:00~18:00",
    "closed_info": "매주 월요일 / 법정공휴일"
  },
  {
    "id": 81,
    "name": "거제시립옥포도서관",
    "code": "148089",
    "address": "경상남도 거제시 진목로 20",
    "tel": "055-639-3881",
    "fax": "055-639-3889",
    "latitude": 34.8970408,
    "longitude": 128.6875731,
    "homepage": "https://lib.geoje.go.kr",
    "open_hours": "09:00 ~ 18:00",
    "closed_info": "매주 월요일 / 법정공휴일"
  },
  {
    "id": 82,
    "name": "거제시립장승포도서관",
    "code": "148033",
    "address": "경상남도 거제시 신부로 36",
    "tel": "055-639-3871",
    "fax": "055-639-3879",
    "latitude": 34.8699012,
    "longitude": 128.7313594,
    "homepage": "https://lib.geoje.go.kr",
    "open_hours": "-",
    "closed_info": "재건축에 따른 임시 폐관(2021.11. ~ 2024.상반기)"
  },
  {
    "id": 83,
    "name": "거제시립장평도서관",
    "code": "148184",
    "address": "경상남도 거제시 장평3로 10",
    "tel": "055-639-3861",
    "fax": "055-639-3869",
    "latitude": 34.889635,
    "longitude": 128.609325,
    "homepage": "https://lib.geoje.go.kr",
    "open_hours": "09:00 ~ 18:00",
    "closed_info": "매주 월요일 / 법정공휴일"
  },
  {
    "id": 84,
    "name": "거제시립하청도서관",
    "code": "148307",
    "address": "경상남도 거제시 하청면 하청로 12-7",
    "tel": "055-639-3921",
    "fax": "055-639-3822",
    "latitude": 34.9554532,
    "longitude": 128.6550841,
    "homepage": "https://lib.geoje.go.kr",
    "open_hours": "09:00 ~ 18:00",
    "closed_info": "매주 월요일 / 법정공휴일"
  },
  {
    "id": 85,
    "name": "거창군립한마음도서관",
    "code": "148046",
    "address": "경상남도 거창군 거창읍 거열로6길 11",
    "tel": "055-940-8470",
    "fax": "055-940-8499",
    "latitude": 35.6891619,
    "longitude": 127.9037437,
    "homepage": "http://library.geochang.go.kr/",
    "open_hours": "-",
    "closed_info": "매주 금요일 / 법정공휴일, 도서관 사유로 군수가 지정한 날, 기타 도서관 사정에 의한 휴관"
  },
  {
    "id": 86,
    "name": "검산작은도서관",
    "code": "745073",
    "address": "전북특별자치도 김제시 요촌북로 110",
    "tel": "063-543-5007",
    "fax": "-",
    "latitude": 35.8074283,
    "longitude": 126.8964428,
    "homepage": "https://gjl.gimje.go.kr/",
    "open_hours": "평일 09:00~18:00",
    "closed_info": "매주 토요일, 일요일 / 공휴일"
  },
  {
    "id": 87,
    "name": "경기도교육청과천도서관",
    "code": "141004",
    "address": "경기도 과천시 도서관길 36",
    "tel": "02-3677-0371",
    "fax": "02-504-7532",
    "latitude": 37.432262,
    "longitude": 126.9965747,
    "homepage": "https://lib.goe.go.kr/kwa/",
    "open_hours": "평일 9:00~22:00 / 주말(토,일) 9:00~17:00",
    "closed_info": "매주 월요일 / 일요일을 제외한 관공서의 공휴일, 필요에 따라 관장이 지정한 날"
  },
  {
    "id": 88,
    "name": "경기도교육청광주도서관",
    "code": "141005",
    "address": "경기도 광주시 경안안길58번길 3",
    "tel": "031-768-6923",
    "fax": "031-768-6925",
    "latitude": 37.4108381,
    "longitude": 127.2552863,
    "homepage": "https://lib.goe.go.kr/gj/",
    "open_hours": "평일 9:00~20:00 / 주말 9:00~17:00",
    "closed_info": "매주 월요일 / 법정공휴일"
  },
  {
    "id": 89,
    "name": "경기도교육청김포도서관",
    "code": "141006",
    "address": "경기도 김포시 봉화로 68",
    "tel": "031-984-3536",
    "fax": "031-983-3536",
    "latitude": 37.6209475,
    "longitude": 126.7117185,
    "homepage": "https://lib.goe.go.kr/gimpo/",
    "open_hours": "평일 9:00~20:00 (어린이자료실은 9:00~18:00) / 주말 9:00~17:00",
    "closed_info": "매주 월요일 / 일요일을 제외한 관공서의 공휴일. 단, 일요일과 겹치는 공휴일은 휴관"
  },
  {
    "id": 90,
    "name": "경기도교육청성남도서관",
    "code": "141008",
    "address": "경기도 성남시 수정구 공원로370번길 26",
    "tel": "031-730-3500",
    "fax": "031-734-4395",
    "latitude": 37.2979705,
    "longitude": 127.0232861,
    "homepage": "https://lib.goe.go.kr/sn/index.do",
    "open_hours": "09:00 ~ 22:00",
    "closed_info": "매주 월요일 / 국가공휴일"
  },
  {
    "id": 91,
    "name": "경기도교육청여주가남도서관",
    "code": "141012",
    "address": "경기도 여주시 가남읍 태평2길 28-7",
    "tel": "031-882-1066",
    "fax": "031-886-2611",
    "latitude": 37.2041633,
    "longitude": 127.5461529,
    "homepage": "https://lib.goe.go.kr/gn/index.do",
    "open_hours": "평일 9:00~20:00 / 주말 9:00~17:00",
    "closed_info": "매주 월요일 / 법정공휴일"
  },
  {
    "id": 92,
    "name": "경기도교육청의정부도서관",
    "code": "141106",
    "address": "경기도 의정부시 체육로 265-25",
    "tel": "031-836-9504",
    "fax": "031-836-9510",
    "latitude": 37.763362,
    "longitude": 127.036438,
    "homepage": "https://lib.goe.go.kr/ujb/index.do",
    "open_hours": "주말: 9시~17시, 평일: 종합자료실-9시~20시, 어린이자료실-9시~18시",
    "closed_info": "매주 월요일 / 관공서의 공휴일에 관한 규정에서 정한 공휴일(다만, 일요일은 개관하되, 일요일과 다른 공휴일이 겹치는 경우에는 휴관)"
  },
  {
    "id": 93,
    "name": "경기도교육청중앙도서관",
    "code": "141010",
    "address": "경기도 수원시 장안구 조원로 18",
    "tel": "031-240-4064",
    "fax": "031-245-3681",
    "latitude": 37.2979705,
    "longitude": 127.0232861,
    "homepage": "https://lib.goe.go.kr/gg/",
    "open_hours": "평일 9:00~18:00 / 주말 9:00~17:00",
    "closed_info": "매주 월요일 / 법정공휴일"
  },
  {
    "id": 94,
    "name": "경기도교육청평생학습관",
    "code": "141141",
    "address": "경기도 수원시 권선구 권중로 55",
    "tel": "031-259-1029",
    "fax": "031-259-1079",
    "latitude": 37.2522357,
    "longitude": 127.0321226,
    "homepage": "https://lib.goe.go.kr/gglec/",
    "open_hours": "평일 9:00~20:00 / 주말 9:00~17:00",
    "closed_info": "매주 월요일 / 법정공휴일"
  },
  {
    "id": 95,
    "name": "경기도교육청평택도서관",
    "code": "141009",
    "address": "경기도 평택시 서정북로125번길 103",
    "tel": "031-8054-8401",
    "fax": "031-667-6548",
    "latitude": 37.0730819,
    "longitude": 127.0626649,
    "homepage": "https://lib.goe.go.kr/pt/",
    "open_hours": "평일 08:00~22:00 / 주말 9:00~17:00",
    "closed_info": "매주 월요일 / 법정공휴일"
  },
  {
    "id": 96,
    "name": "경기도교육청포천도서관",
    "code": "141017",
    "address": "경기도 포천시 중앙로 92-6",
    "tel": "031-536-9590",
    "fax": "031-531-8754",
    "latitude": 37.8944791,
    "longitude": 127.2018087,
    "homepage": "https://lib.goe.go.kr/pc/",
    "open_hours": "평일 09:00~20:00 / 주말 09:00~17:00",
    "closed_info": "매주 월요일 / 법정공휴일"
  },
  {
    "id": 97,
    "name": "경기도교육청화성도서관",
    "code": "141130",
    "address": "경기도 화성시 향남읍 발안로 85-10",
    "tel": "031-369-5700",
    "fax": "031-366-2936",
    "latitude": 37.1331056,
    "longitude": 126.9201978,
    "homepage": "https://lib.goe.go.kr/hs/",
    "open_hours": "화~금 09:00~20:00, 토~일 09:00~17:00",
    "closed_info": "매주 월요일 / 법정 공휴일"
  },
  {
    "id": 98,
    "name": "경남대표도서관",
    "code": "148308",
    "address": "경상남도 창원시 의창구 사림로45번길 59",
    "tel": "055-254-4811",
    "fax": "055-254-4819",
    "latitude": 35.2490494,
    "longitude": 128.6820973,
    "homepage": "https://lib.gyeongnam.go.kr/index.lib",
    "open_hours": "평일 09:00~20:00, 주말 09:00~18:00",
    "closed_info": "매주 금요일 / 법정공휴일"
  },
  {
    "id": 99,
    "name": "경북도서관",
    "code": "147168",
    "address": "경상북도 예천군 호명읍 도청대로 200",
    "tel": "054-650-3900",
    "fax": "054-650-3919",
    "latitude": 36.5743881,
    "longitude": 128.4879321,
    "homepage": "https://www.gb.go.kr/lib",
    "open_hours": "주중 09:00~21:00, 주말 09:00~18:00",
    "closed_info": "매월 첫번째, 세번째 월요일 / 법정&middot;임시공휴일"
  },
  {
    "id": 100,
    "name": "경산시립도서관",
    "code": "147001",
    "address": "경상북도 경산시 하양읍 문화로10길 15",
    "tel": "053-853-8659",
    "fax": "053-853-8660",
    "latitude": 35.9132142,
    "longitude": 128.8129935,
    "homepage": "http://lib.gbgs.go.kr/",
    "open_hours": "08:00~22:00",
    "closed_info": "매월 둘째주, 넷째주 월요일 / 국경일 및 정부에서 지정한 공휴일, 장서점검 등 필요한 사유 발생시 임시휴관"
  },
  {
    "id": 102,
    "name": "경상남도교육청 거제도서관",
    "code": "148001",
    "address": "경상남도 거제시 계룡로7길 2",
    "tel": "055-637-6311",
    "fax": "055-636-9213",
    "latitude": 34.8789706,
    "longitude": 128.6229211,
    "homepage": "https://gjlib.gne.go.kr/index.es?sid=c7",
    "open_hours": "자료실 평일·휴일 09:00~18:00 / 학습실 월요일 09:00~18:00, 화~일요일 09:00~21:00",
    "closed_info": "매주 월요일 / 법정공휴일(셋째주 월요일 학습실 휴관)"
  },
  {
    "id": 103,
    "name": "경상남도교육청 거창도서관",
    "code": "148002",
    "address": "경상남도 거창군 거창읍 하동1길 9",
    "tel": "055-944-8594",
    "fax": "055-943-6052",
    "latitude": 35.6871543,
    "longitude": 127.9115485,
    "homepage": "http://gclib.gne.go.kr",
    "open_hours": "평일 09:00~18:00, 주말 09:00~18:00",
    "closed_info": "매주 월요일 / 법정공휴일"
  },
  {
    "id": 104,
    "name": "경상남도교육청 고성도서관",
    "code": "148003",
    "address": "경상남도 고성군 고성읍 동외로 195번길 6",
    "tel": "055-673-8460",
    "fax": "055-673-8464",
    "latitude": 34.9792068,
    "longitude": 128.3263477,
    "homepage": "https://gslib.gne.go.kr",
    "open_hours": "화~일 09:00~18:00",
    "closed_info": "매주 월요일 / 일요일을 제외한 법정공휴일(단, 일요일이 법정공휴일과 겹치는 경우는 휴관), 특별한 경우의 관장공고일"
  },
  {
    "id": 105,
    "name": "경상남도교육청 김해도서관",
    "code": "148004",
    "address": "경상남도 김해시 왕릉길 72",
    "tel": "055-320-5500",
    "fax": "055-320-5574",
    "latitude": 35.2327245,
    "longitude": 128.873884,
    "homepage": "https://ghlib.gne.go.kr",
    "open_hours": "평일 09:00~21:00, 주말 09:00~18:00",
    "closed_info": "매주 월요일 / 법정공휴일"
  },
  {
    "id": 106,
    "name": "경상남도교육청 김해지혜의바다도서관",
    "code": "148312",
    "address": "경상남도 김해시 주촌면 서부로1541번길 8",
    "tel": "055-330-9800",
    "fax": "055-330-9830",
    "latitude": 35.236152,
    "longitude": 128.8215732,
    "homepage": "http://ghjhlib.gne.go.kr",
    "open_hours": "평일 09:00~21:00, 주말 09:00~18:00",
    "closed_info": "매월 두번째 월요일 / 법정공휴일"
  },
  {
    "id": 107,
    "name": "경상남도교육청 남지도서관",
    "code": "148032",
    "address": "경상남도 창녕군 남지읍 낙동로 437",
    "tel": "055-526-1490",
    "fax": "055-526-1473",
    "latitude": 35.3891529,
    "longitude": 128.4713668,
    "homepage": "https://njlib.gne.go.kr",
    "open_hours": "화요일~일요일 09:00~18:00",
    "closed_info": "매주 월요일 / 법정공휴일"
  },
  {
    "id": 108,
    "name": "경상남도교육청 남해도서관",
    "code": "148005",
    "address": "경상남도 남해군 남해읍 화전로43번길 11-3",
    "tel": "055-864-0973",
    "fax": "055-864-2074",
    "latitude": 34.8343568,
    "longitude": 127.8948644,
    "homepage": "https://nhlib.gne.go.kr",
    "open_hours": "자료실 화~일요일 9:00~18:00, 학습실 월~일요일 9:00~21:00",
    "closed_info": "매주 월요일 / 법정공휴일"
  },
  {
    "id": 109,
    "name": "경상남도교육청 마산도서관",
    "code": "148006",
    "address": "경상남도 창원시 마산합포구 용마산길 12",
    "tel": "055-240-4555",
    "fax": "055-240-4567",
    "latitude": 35.2130262,
    "longitude": 128.584792,
    "homepage": "http://mslib.gne.go.kr",
    "open_hours": "평일 09:00~21:00, 주말 09:00~18:00",
    "closed_info": "매월 세번째 월요일 / 일요일을 제외한 법정공휴일(단, 일요일이 국경일, 공휴일인 경우 휴관), 기타 관장 공고일 / 6. 17.(화)~6. 20.(금) 장서점검 및 바닥 청소로 인한 임시휴관"
  },
  {
    "id": 110,
    "name": "경상남도교육청 마산지혜의바다도서관",
    "code": "148310",
    "address": "경상남도 창원시 마산회원구 구암북12길 24-1",
    "tel": "055-252-3860",
    "fax": "055-252-3865",
    "latitude": 35.2567086,
    "longitude": 128.597716,
    "homepage": "https://jhlib.gne.go.kr",
    "open_hours": "09:00~21:00",
    "closed_info": "매월 네번째 월요일 / 법정공휴일"
  },
  {
    "id": 111,
    "name": "경상남도교육청 밀양도서관",
    "code": "148007",
    "address": "경상남도 밀양시 삼랑진읍 만어로 7",
    "tel": "055-353-6977",
    "fax": "055-356-8048",
    "latitude": 35.4000943,
    "longitude": 128.8414162,
    "homepage": "https://mrlib.gne.go.kr",
    "open_hours": "화~일요일 09:00~18:00",
    "closed_info": "매주 월요일 / 법정공휴일"
  },
  {
    "id": 112,
    "name": "경상남도교육청 사천도서관",
    "code": "148009",
    "address": "경상남도 사천시 사천읍 평화2길 21",
    "tel": "055-853-8401",
    "fax": "055-855-7740",
    "latitude": 35.0833041,
    "longitude": 128.0874714,
    "homepage": "http://salib.gne.go.kr",
    "open_hours": "자료실: 09:00~18:00, 자유학습실: 08:00~21:00",
    "closed_info": "매주 월요일 / 법정공휴일(단, 학습실은 법정공휴일만 휴관)"
  },
  {
    "id": 113,
    "name": "경상남도교육청 산청도서관",
    "code": "148010",
    "address": "경상남도 산청군 산청읍 꽃봉산로 79번길 45",
    "tel": "055-973-2544",
    "fax": "055-973-2711",
    "latitude": 35.4168475,
    "longitude": 127.8764157,
    "homepage": "https://sanlib.gne.go.kr",
    "open_hours": "화~일 09:00~18:00",
    "closed_info": "매주 월요일 / 법정공휴일"
  },
  {
    "id": 114,
    "name": "경상남도교육청 산청지리산도서관",
    "code": "148316",
    "address": "경상남도 산청군 신안면 원지강변로 101",
    "tel": "055-974-1611",
    "fax": "055-974-1622",
    "latitude": 35.3014196,
    "longitude": 127.9744965,
    "homepage": "https://sjlib.gne.go.kr",
    "open_hours": "화~일요일 09:00~18:00",
    "closed_info": "매주 월요일 / 법정공휴일"
  },
  {
    "id": 115,
    "name": "경상남도교육청 삼천포도서관",
    "code": "148011",
    "address": "경상남도 사천시 삼천포대교로 622",
    "tel": "055-835-4436",
    "fax": "055-834-8928",
    "latitude": 34.9533106,
    "longitude": 128.0772786,
    "homepage": "http://scplib.gne.go.kr",
    "open_hours": "화~일요일 09:00~18:00",
    "closed_info": "매주 월요일 / 법정공휴일"
  },
  {
    "id": 116,
    "name": "경상남도교육청 양산도서관",
    "code": "148012",
    "address": "경상남도 양산시 물금읍 신주2길 24",
    "tel": "055-385-7004",
    "fax": "055-385-7006",
    "latitude": 35.3477893,
    "longitude": 129.0439266,
    "homepage": "https://yslib.gne.go.kr",
    "open_hours": "화~일요일 09:00~18:00",
    "closed_info": "매주 월요일 / 일요일을 제외한 법정공휴일, 도서관장이 지정한 날"
  },
  {
    "id": 117,
    "name": "경상남도교육청 의령도서관",
    "code": "148019",
    "address": "경상남도 의령군 의령읍 의병로25길 9-8",
    "tel": "055-572-0941",
    "fax": "055-573-0890",
    "latitude": 35.319722,
    "longitude": 128.2669478,
    "homepage": "http://urlib.gne.go.kr",
    "open_hours": "자료실 09:00~18:00 / 자유학습실 09:00~21:00, 09:00~18:00(월요일)",
    "closed_info": "매주 월요일 / 법정공휴일"
  },
  {
    "id": 118,
    "name": "경상남도교육청 진동도서관",
    "code": "148034",
    "address": "경상남도 창원시 마산합포구 진동면 삼진의거대로 661-94",
    "tel": "055-271-8144",
    "fax": "055-271-0351",
    "latitude": 35.1193316,
    "longitude": 128.4897935,
    "homepage": "http://jdlib.gne.go.kr",
    "open_hours": "자료실: 화~일 09:00~18:00 / 자유학습실: 월 09:00~18:00, 화~일 09:00~22:00",
    "closed_info": "매주 월요일 / 법정공휴일"
  },
  {
    "id": 119,
    "name": "경상남도교육청 진양도서관",
    "code": "148020",
    "address": "경상남도 진주시 문산읍 동부로 588번길 24",
    "tel": "055-761-2722",
    "fax": "055-761-9606",
    "latitude": 35.1670616,
    "longitude": 128.1660324,
    "homepage": "https://jinlib.gne.go.kr",
    "open_hours": "자료실 09:00~18:00, 열람실 08:00~22:00, 08:00~18:00(월요일)",
    "closed_info": "매주 월요일 / 법정공휴일"
  },
  {
    "id": 120,
    "name": "경상남도교육청 진영도서관",
    "code": "148021",
    "address": "경상남도 김해시 진영읍 진영로265번길 9-61",
    "tel": "055-343-8791",
    "fax": "055-342-1451",
    "latitude": 35.3047655,
    "longitude": 128.7414169,
    "homepage": "https://jylib.gne.go.kr",
    "open_hours": "평일 09:00~18:00, 주말 09:00~18:00",
    "closed_info": "매주 월요일 / 법정공휴일"
  },
  {
    "id": 121,
    "name": "경상남도교육청 창녕도서관",
    "code": "148024",
    "address": "경상남도 창녕군 창녕읍 남창녕로 52",
    "tel": "055-532-9501",
    "fax": "055-532-9507",
    "latitude": 35.5359284,
    "longitude": 128.5035663,
    "homepage": "https://cnlib.gne.go.kr",
    "open_hours": "평일 09:00~18:00, 주말 09:00~18:00",
    "closed_info": "매주 월요일 / 법정공휴일"
  },
  {
    "id": 122,
    "name": "경상남도교육청 창원도서관",
    "code": "148025",
    "address": "경상남도 창원시 성산구 두대로 197-33",
    "tel": "055-278-2800",
    "fax": "055-278-2835",
    "latitude": 35.2243237,
    "longitude": 128.6641208,
    "homepage": "http://cwlib.gne.go.kr",
    "open_hours": "책담&middot;꿈담 월~금 09:00~21:00, 토,일 09:00~18:00 / 스마트누리 연중무휴",
    "closed_info": "매월 두번째 월요일 / 일요일을 제외한 법정공휴일"
  },
  {
    "id": 123,
    "name": "경상남도교육청 통영도서관",
    "code": "148026",
    "address": "경상남도 통영시 봉수로 37",
    "tel": "055-648-8092",
    "fax": "055-648-1602",
    "latitude": 34.8278389,
    "longitude": 128.4161814,
    "homepage": "https://tylib.gne.go.kr",
    "open_hours": "평일 09:00~21:00, 주말 09:00~18:00",
    "closed_info": "매주 월요일 / 법정공휴일"
  },
  {
    "id": 124,
    "name": "경상남도교육청 하남도서관",
    "code": "148036",
    "address": "경상남도 밀양시 하남읍 수산중앙로 63",
    "tel": "055-391-1848",
    "fax": "055-391-1838",
    "latitude": 35.3763692,
    "longitude": 128.7121536,
    "homepage": "https://hnlib.gne.go.kr",
    "open_hours": "평일 09:00~18:00, 주말 09:00~18:00",
    "closed_info": "매주 월요일 / 법정공휴일"
  },
  {
    "id": 125,
    "name": "경상남도교육청 하동도서관",
    "code": "148027",
    "address": "경상남도 하동군 하동읍 경서대로 80",
    "tel": "055-884-7983",
    "fax": "055-882-5958",
    "latitude": 35.0638743,
    "longitude": 127.7447672,
    "homepage": "https://hdlib.gne.go.kr",
    "open_hours": "화~일 09:00~18:00",
    "closed_info": "매주 월요일 / 일요일을 제외한 법정공휴일(단, 일요일이 국경일이나 그 밖의 공휴일과 겹치는 경우는 휴관), 기타 관장이 공고한 날"
  },
  {
    "id": 126,
    "name": "경상남도교육청 함안도서관",
    "code": "148028",
    "address": "경상남도 함안군 가야읍 선왕길 16",
    "tel": "055-583-6919",
    "fax": "055-583-8266",
    "latitude": 35.2714708,
    "longitude": 128.4082277,
    "homepage": "http://hmlib.gne.go.kr",
    "open_hours": "화요일~일요일 9:00~18:00",
    "closed_info": "매주 월요일 / 일요일을 제외한 법정공휴일, 기타 관장이 공고한 날"
  },
  {
    "id": 127,
    "name": "경상남도교육청 함양도서관",
    "code": "148029",
    "address": "경상남도 함양군 함양읍 함양로 1143-1",
    "tel": "055-963-3186",
    "fax": "055-964-0810",
    "latitude": 35.5211121,
    "longitude": 127.7270663,
    "homepage": "https://hylib.gne.go.kr",
    "open_hours": "09:00~18:00",
    "closed_info": "매주 월요일 / 법정공휴일"
  },
  {
    "id": 128,
    "name": "경상남도교육청 합천도서관",
    "code": "148030",
    "address": "경상남도 합천군 합천읍 동서로 152",
    "tel": "055-932-0521",
    "fax": "055-932-3945",
    "latitude": 35.5643101,
    "longitude": 128.1689735,
    "homepage": "https://hclib.gne.go.kr",
    "open_hours": "평일 09:00~18:00, 주말 09:00~18:00",
    "closed_info": "매주 월요일 / 법정공휴일"
  },
  {
    "id": 129,
    "name": "경상북도교육청 고령도서관",
    "code": "147002",
    "address": "경상북도 고령군 대가야읍 연조1길 10",
    "tel": "054-955-2510",
    "fax": "054-954-6220",
    "latitude": 35.7311981,
    "longitude": 128.2675909,
    "homepage": "http://www.gbelib.kr/gr",
    "open_hours": "자료실: 평일 09:00~18:00 주말 09:00~17:00 / 열람실: 09:00~22:00",
    "closed_info": "매주 월요일 / 법정공휴일"
  },
  {
    "id": 130,
    "name": "경상북도교육청 구미도서관",
    "code": "147003",
    "address": "경상북도 구미시 산책길 41",
    "tel": "054-450-7000",
    "fax": "054-457-4542",
    "latitude": 36.1238074,
    "longitude": 128.3315119,
    "homepage": "http://www.gbelib.kr/gm",
    "open_hours": "평일 09:00~18:00, 주말 09:00~17:00 / 열람실: 08:00~22:00",
    "closed_info": "매월 둘째주, 넷째주 월요일 / 법정공휴일"
  },
  {
    "id": 131,
    "name": "경상북도교육청 금호도서관",
    "code": "147014",
    "address": "경상북도 영천시 금호읍 금호로 173",
    "tel": "054-336-2126",
    "fax": "054-331-9047",
    "latitude": 35.9343797,
    "longitude": 128.8806563,
    "homepage": "http://www.gbelib.kr/ycgh",
    "open_hours": "자료실 - 평일(화~금) : 09:00~18:00 / 주말(토~일) : 09:00~17:00 / 열람실 - 3월~10월 : 09:00~22:00 / 11월~2월 : 09:00~21:00",
    "closed_info": "매주 월요일 / 일요일을 제외한 관공서의 공휴일(단, 일요일과 관공서의 공휴일이 겹치는 경우에는 휴관)"
  },
  {
    "id": 132,
    "name": "경상북도교육청 봉화도서관",
    "code": "147007",
    "address": "경상북도 봉화군 봉화읍 내성로3길 6",
    "tel": "054-673-0973",
    "fax": "054-673-2544",
    "latitude": 36.8883933,
    "longitude": 128.7401267,
    "homepage": "http://www.gbelib.kr/bh",
    "open_hours": "열람실 월~금 08:00~22:00,토~일 08:00~18:00 / 자료실 월~금 09:00~18:00, 토,일 09:00~17:00",
    "closed_info": "매월 마지막주 월요일 / 법정공휴일"
  },
  {
    "id": 133,
    "name": "경상북도교육청 상주도서관",
    "code": "147008",
    "address": "경상북도 상주시 상서문1길 127",
    "tel": "054-530-6300",
    "fax": "054-536-0409",
    "latitude": 36.4120515,
    "longitude": 128.1584487,
    "homepage": "http://www.gbelib.kr/sj",
    "open_hours": "09:00~19:00(일반자료실), 09:00~18:00(어린이&middot;정기간행물&middot;디지털자료실), 주말 09:00~17:00(자료실) / 08:00~22:00(열람실)",
    "closed_info": "매월 둘째주, 넷째주 월요일 / 법정공휴일"
  },
  {
    "id": 134,
    "name": "경상북도교육청 상주도서관 화령분관",
    "code": "147040",
    "address": "경상북도 상주시 화서면 중화로 2193",
    "tel": "054-532-4754",
    "fax": "054-534-9550",
    "latitude": 36.44241,
    "longitude": 127.945837,
    "homepage": "http://www.gbelib.kr/sjhr",
    "open_hours": "(평일) 9:00 ~ 18:00 (주말) 9:00 ~ 17:00",
    "closed_info": "매주 월요일 / 법정공휴일, 특별한 사유로 관장이 지정하는 날"
  },
  {
    "id": 135,
    "name": "경상북도교육청 성주도서관",
    "code": "147009",
    "address": "경상북도 성주군 성주읍 주천로 15-11",
    "tel": "054-933-2095",
    "fax": "054-931-2495",
    "latitude": 35.9275785,
    "longitude": 128.2835825,
    "homepage": "http://www.gbelib.kr/sjl",
    "open_hours": "자료실: 평일 09:00~18:00, 주말 09:00~17:00 / 열람실: 평일 09:00~22:00",
    "closed_info": "매주 월요일 / 법정공휴일"
  },
  {
    "id": 136,
    "name": "경상북도교육청 안동도서관",
    "code": "147010",
    "address": "경상북도 안동시 안기천로 48",
    "tel": "054-840-8414",
    "fax": "054-854-5149",
    "latitude": 36.5614924,
    "longitude": 128.7170411,
    "homepage": "http://www.gbelib.kr/ad",
    "open_hours": "평일: 일반자료실 09:00~19:00 / 어린이&middot;정보마루&middot;디지털자료실 09:00~18:00 , 주말: 09:00~17:00 / 북카페&middot;열람실 08:00~22:00",
    "closed_info": "매월 둘째주, 넷째주 월요일 / 법정공휴일"
  },
  {
    "id": 137,
    "name": "경상북도교육청 안동도서관 용상분관",
    "code": "147011",
    "address": "경상북도 안동시 경동로 884-8",
    "tel": "054-821-5491",
    "fax": "054-821-7540",
    "latitude": 36.5576204,
    "longitude": 128.7516426,
    "homepage": "http://www.gbelib.kr/adys",
    "open_hours": "화~금 09:00~18:00 / 토~일 09:00~17:00 / 열람실 08:00~22:00",
    "closed_info": "매주 월요일 / 법정공휴일"
  },
  {
    "id": 138,
    "name": "경상북도교육청 안동도서관 풍산분관",
    "code": "147039",
    "address": "경상북도 안동시 풍산읍 하리들길 22",
    "tel": "054-858-7603",
    "fax": "054-858-8030",
    "latitude": 36.5767134,
    "longitude": 128.5752714,
    "homepage": "https://www.gbelib.kr/adps",
    "open_hours": "08:00~22:00",
    "closed_info": "매주 월요일 / 법정공휴일"
  },
  {
    "id": 139,
    "name": "경상북도교육청 영덕도서관",
    "code": "147031",
    "address": "경상북도 영덕군 영덕읍 영덕로 201",
    "tel": "054-734-3106",
    "fax": "054-732-9945",
    "latitude": 36.4146875,
    "longitude": 129.3680705,
    "homepage": "http://www.gbelib.kr/yd",
    "open_hours": "평일 09:00~18:00, 주말 09:00~17:00",
    "closed_info": "매주 월요일 / 법정공휴일"
  },
  {
    "id": 140,
    "name": "경상북도교육청 영양도서관",
    "code": "147012",
    "address": "경상북도 영양군 영양읍 팔수로 538",
    "tel": "054-683-2829",
    "fax": "054-683-1718",
    "latitude": 36.6606963,
    "longitude": 129.1108249,
    "homepage": "https://www.gbelib.kr/yy",
    "open_hours": "평일 09:00~18:00, 주말 09:00~17:00 (열람실 평일&middot;주말 08:00~22:00)",
    "closed_info": "매주 월요일 / 법정공휴일"
  },
  {
    "id": 141,
    "name": "경상북도교육청 영일도서관",
    "code": "147013",
    "address": "경상북도 포항시 북구 흥해읍 흥해로 101",
    "tel": "054-261-8856",
    "fax": "054-262-2525",
    "latitude": 36.113839,
    "longitude": 129.345885,
    "homepage": "http://www.gbelib.kr/yi",
    "open_hours": "09:00~18:00(화~금), 09:00~17:00(토,일), 09:00~22:00(열람실)",
    "closed_info": "매주 월요일 / 법정공휴일"
  },
  {
    "id": 142,
    "name": "경상북도교육청 영주선비도서관",
    "code": "147032",
    "address": "경상북도 영주시 영주로60번길 38",
    "tel": "054-630-3800",
    "fax": "054-631-8144",
    "latitude": 36.8198818,
    "longitude": 128.6062617,
    "homepage": "http://www.gbelib.kr/yj",
    "open_hours": "평일 종합자료실 9:00~18:00 / 어린이&middot;유아․디지털 자료실 09:00~18:00 , 주말 09:00~17:00 / 열람실 08:00~22:00 / 스마트도서관 연중무휴 24시간 운영",
    "closed_info": "매월 둘째주, 넷째주 월요일 / 일요일을 제외한 관공서의 공휴일 (단, 일요일과 기타 공휴일이 겹치는 경우에는 휴관)"
  },
  {
    "id": 143,
    "name": "경상북도교육청 영주선비도서관 풍기분관",
    "code": "147024",
    "address": "경상북도 영주시 풍기읍 남원로 152-12",
    "tel": "054-637-9811",
    "fax": "054-635-3030",
    "latitude": 36.8708438,
    "longitude": 128.5196398,
    "homepage": "http://www.gbelib.kr/yjpg",
    "open_hours": "자료실 평일 09:00~18:00, 주말 09:00~17:00 / 열람실 09:00~22:00",
    "closed_info": "매주 월요일 / 법정공휴일"
  },
  {
    "id": 144,
    "name": "경상북도교육청 예천도서관",
    "code": "147015",
    "address": "경상북도 예천군 예천읍 시장로 134, 5층",
    "tel": "054-654-9666",
    "fax": "054-652-6076",
    "latitude": 36.6554127,
    "longitude": 128.4546282,
    "homepage": "http://www.gbelib.kr/yc",
    "open_hours": "자료실 09:00~18:00",
    "closed_info": "매주 월요일 / 법정공휴일"
  },
  {
    "id": 145,
    "name": "경상북도교육청 외동도서관",
    "code": "147016",
    "address": "경상북도 경주시 외동읍 입실로 98",
    "tel": "054-776-6960",
    "fax": "054-776-6050",
    "latitude": 35.7172229,
    "longitude": 129.3245128,
    "homepage": "http://www.gbelib.kr/od",
    "open_hours": "평일 09:00~18:00, 주말 09:00~17:00",
    "closed_info": "매주 월요일 / 법정공휴일"
  },
  {
    "id": 146,
    "name": "경상북도교육청 울릉도서관",
    "code": "147017",
    "address": "경상북도 울릉군 울릉읍 봉래길 128-10",
    "tel": "054-791-2294",
    "fax": "054-791-5211",
    "latitude": 37.4993877,
    "longitude": 130.901446,
    "homepage": "http://www.gbelib.kr/ul",
    "open_hours": "09:00~21:00 (섬초롱도서관 10:00~19:00)",
    "closed_info": "매주 월요일 / 일요일을 제외한 법정공휴일 (섬초롱도서관 매주 금요일, 일요일)"
  },
  {
    "id": 147,
    "name": "경상북도교육청 울진도서관",
    "code": "147018",
    "address": "경상북도 울진군 울진읍 월변7길 17",
    "tel": "054-783-2375",
    "fax": "054-782-2679",
    "latitude": 36.9863869,
    "longitude": 129.3994624,
    "homepage": "http://www.gbelib.kr/uj",
    "open_hours": "자료실 : 평일 09:00~18:00, 주말 09:00~17:00 / 열람실 09:00~22:00",
    "closed_info": "매주 월요일 / 법정공휴일"
  },
  {
    "id": 148,
    "name": "경상북도교육청 의성도서관",
    "code": "147019",
    "address": "경상북도 의성군 의성읍 중리길 44",
    "tel": "054-834-7916",
    "fax": "054-832-7374",
    "latitude": 36.3537544,
    "longitude": 128.700792,
    "homepage": "http://www.gbelib.kr/us",
    "open_hours": "평일 09:00~18:00, 주말 09:00~17:00",
    "closed_info": "매주 월요일 / 법정공휴일"
  },
  {
    "id": 149,
    "name": "경상북도교육청 점촌도서관",
    "code": "147020",
    "address": "경상북도 문경시 호서로 133",
    "tel": "054-550-3600",
    "fax": "054-550-3611",
    "latitude": 36.6058736,
    "longitude": 128.2045857,
    "homepage": "http://www.gbelib.kr/jc",
    "open_hours": "평일 09:00~18:00, 주말 09:00~17:00(자료실) / 09:00~22:00(열람실)",
    "closed_info": "매주 월요일 / 일요일을 제외한 법정 공휴일"
  },
  {
    "id": 150,
    "name": "경상북도교육청 점촌도서관 가은분관",
    "code": "147006",
    "address": "경상북도 문경시 가은읍 대야로 2508",
    "tel": "054-572-0309",
    "fax": "054-571-1251",
    "latitude": 36.6470547,
    "longitude": 128.0618016,
    "homepage": "http://www.gbelib.kr/jcge/index.do",
    "open_hours": "09:00 ~ 21:00",
    "closed_info": "매주 월요일 / 일요일을 제외한 법정 공휴일"
  },
  {
    "id": 151,
    "name": "경상북도교육청 청도도서관",
    "code": "147021",
    "address": "경상북도 청도군 청도읍 청화로 124",
    "tel": "054-370-7600",
    "fax": "054-372-0922",
    "latitude": 35.6452984,
    "longitude": 128.7400677,
    "homepage": "http://www.gbelib.kr/cd",
    "open_hours": "평일 09:00~18:00, 주말 09:00~17:00(자율학습실 09:00~22:00)",
    "closed_info": "매주 월요일 / 법정공휴일"
  },
  {
    "id": 152,
    "name": "경상북도교육청 청송도서관",
    "code": "147022",
    "address": "경상북도 청송군 청송읍 군청로 25",
    "tel": "054-872-4907",
    "fax": "054-873-1542",
    "latitude": 36.4366493,
    "longitude": 129.0552349,
    "homepage": "http://www.gbelib.kr/cs",
    "open_hours": "09:00~18:00(평일) 09:00~17:00(주말)",
    "closed_info": "매주 월요일 / 법정공휴일"
  },
  {
    "id": 153,
    "name": "경상북도교육청 칠곡도서관",
    "code": "147023",
    "address": "경상북도 칠곡군 왜관읍 군청3길 13",
    "tel": "054-971-1507",
    "fax": "-",
    "latitude": 35.996273,
    "longitude": 128.4035346,
    "homepage": "http://www.gbelib.kr/cg",
    "open_hours": "평일 09:00~18:00, 주말 09:00~17:00",
    "closed_info": "매주 월요일 / 일요일을 제외한 국가공휴일"
  },
  {
    "id": 154,
    "name": "경상북도교육청문화원 종합정보자료실",
    "code": "147105",
    "address": "경상북도 포항시 북구 환호로 50",
    "tel": "054-245-7768",
    "fax": "054-245-7780",
    "latitude": 36.0736127,
    "longitude": 129.3913615,
    "homepage": "http://www.gbelib.kr/gbccs",
    "open_hours": "화요일~금요일(09:00~18:00), 토요일(09:00~17:00)",
    "closed_info": "매주 월요일, 일요일 / 국가공휴일"
  },
  {
    "id": 155,
    "name": "경상북도교육청연수원 도서관",
    "code": "347034",
    "address": "경상북도 구미시 금오산로 198-14",
    "tel": "054-450-4340",
    "fax": "054-450-4350",
    "latitude": 36.1243423,
    "longitude": 128.3221001,
    "homepage": "http://www.gbeti.or.kr",
    "open_hours": "09:00~18:00",
    "closed_info": "주말 / 법정공휴일"
  },
  {
    "id": 156,
    "name": "경상북도교육청정보센터",
    "code": "147046",
    "address": "경상북도 경산시 원효로 60",
    "tel": "053-810-9999",
    "fax": "053-810-9730",
    "latitude": 35.822663,
    "longitude": 128.7441109,
    "homepage": "http://www.gbelib.kr/geic",
    "open_hours": "평일 09:00~18:00 / 주말 09:00~17:00",
    "closed_info": "매월 둘째주, 넷째주 월요일 / 법정공휴일"
  },
  {
    "id": 157,
    "name": "경주시립감포도서관",
    "code": "147042",
    "address": "경상북도 경주시 감포읍 동해안로 2151",
    "tel": "054-779-8912",
    "fax": "054-760-7436",
    "latitude": 35.798772,
    "longitude": 129.4929311,
    "homepage": "http://library.gyeongju.go.kr",
    "open_hours": "자료실 : 화~금 09:00~18:00, 주말 : 09:00~17:00 / 열람실 : 09:00~21:00",
    "closed_info": "매주 월요일 / 법정공휴일"
  },
  {
    "id": 158,
    "name": "경주시립단석도서관",
    "code": "147044",
    "address": "경상북도 경주시 건천읍 작원3길 23",
    "tel": "054-779-8919",
    "fax": "054-760-7436",
    "latitude": 35.8517385,
    "longitude": 129.1025403,
    "homepage": "http://library.gyeongju.go.kr",
    "open_hours": "자료실 : 화~금 09:00~18:00, 주말 : 09:00~17:00 / 열람실 : 09:00~21:00",
    "closed_info": "매주 월요일 / 법정공휴일"
  },
  {
    "id": 159,
    "name": "경주시립도서관",
    "code": "147025",
    "address": "경상북도 경주시 원화로 431-12",
    "tel": "054-779-8891",
    "fax": "054-760-7436",
    "latitude": 35.8598841,
    "longitude": 129.2186252,
    "homepage": "http://library.gyeongju.go.kr",
    "open_hours": "자료실 평일(화~금) 09:00~18:00, 주말(토, 일) 09:00~17:00 / 열람실 평일(월~금) 09:00~22:00, 주말(토,일) 09:00~21:00",
    "closed_info": "매주 월요일 / 법정공휴일"
  },
  {
    "id": 160,
    "name": "경주시립송화도서관",
    "code": "147120",
    "address": "경상북도 경주시 태종로 472-9",
    "tel": "054-779-8907",
    "fax": "054-760-7436",
    "latitude": 35.8421572,
    "longitude": 129.1816974,
    "homepage": "http://library.gyeongju.go.kr",
    "open_hours": "자료실 : 화~금 09:00~18:00, 주말 : 09:00~17:00 / 열람실 : 09:00~21:00",
    "closed_info": "매주 월요일 / 법정공휴일"
  },
  {
    "id": 161,
    "name": "경주시립중앙도서관",
    "code": "147026",
    "address": "경상북도 경주시 금성로 236",
    "tel": "054-779-8918",
    "fax": "054-760-7436",
    "latitude": 35.8384087,
    "longitude": 129.2076376,
    "homepage": "http://library.gyeongju.go.kr",
    "open_hours": "자료실 : 화~금 09:00~18:00, 주말 : 09:00~17:00 / 열람실 : 09:00~21:00",
    "closed_info": "매주 월요일 / 법정공휴일"
  },
  {
    "id": 162,
    "name": "경주시립칠평도서관",
    "code": "147052",
    "address": "경상북도 경주시 안강읍 비화중로 51",
    "tel": "-",
    "fax": "-",
    "latitude": 35.992291,
    "longitude": 129.2186912,
    "homepage": "http://library.gyeongju.go.kr",
    "open_hours": "자료실 : 화~금 09:00~18:00, 주말 : 09:00~17:00 / 열람실 : 09:00~21:00",
    "closed_info": "매주 월요일 / 법정공휴일"
  },
  {
    "id": 163,
    "name": "고대웃음꽃 작은도서관",
    "code": "144055",
    "address": "충청남도 당진시 고대면 고대로 65, 2층",
    "tel": "041-350-4952",
    "fax": "041-360-6919",
    "latitude": 36.9364382,
    "longitude": 126.59208,
    "homepage": "http://www.dangjin.go.kr/lib.do",
    "open_hours": "09:00~18:00",
    "closed_info": "매주 월요일, 일요일"
  },
  {
    "id": 164,
    "name": "고맙습니다 하난곡작은도서관",
    "code": "111312",
    "address": "서울특별시 관악구 난우10가길 20-7",
    "tel": "02-868-8994",
    "fax": "02-878-8996",
    "latitude": 37.4767912,
    "longitude": 126.9199313,
    "homepage": "http://lib.gwanak.go.kr/",
    "open_hours": "9시~18시(평일), 9시~17시(주말)",
    "closed_info": "매주 월요일 / 국가공휴일(단, 일요일과 법정공휴일이 겹칠 경우 휴관), 도서관 사정으로 휴관하는 날"
  },
  {
    "id": 165,
    "name": "고북작은도서관",
    "code": "144111",
    "address": "충청남도 서산시 고북면 고북1로 294",
    "tel": "070-8668-0880",
    "fax": "-",
    "latitude": 36.667254,
    "longitude": 126.533492,
    "homepage": "http://www.seosan.go.kr/citylib/index.do",
    "open_hours": "-",
    "closed_info": "매주 월요일, 일요일 / 국경일, 임시공휴일"
  },
  {
    "id": 166,
    "name": "고암작은도서관",
    "code": "741758",
    "address": "경기도 양주시 고암길 251-1",
    "tel": "031-8082-7489",
    "fax": "-",
    "latitude": 37.8333114,
    "longitude": 127.0708782,
    "homepage": "https://www.libyj.go.kr/goamlib/index.do",
    "open_hours": "평일,주말 09:00~18:00",
    "closed_info": "매주 월요일 / 법정공휴일"
  },
  {
    "id": 167,
    "name": "고양시립가좌도서관",
    "code": "141574",
    "address": "경기도 고양시 일산서구 가좌3로 16",
    "tel": "031-8075-9380",
    "fax": "031-911-1328",
    "latitude": 37.6861719,
    "longitude": 126.7202262,
    "homepage": "https://www.goyanglib.or.kr/MT/index.do",
    "open_hours": "열람실 : 하절기 (3월~10월) 07:00~23:00, 동절기 (11월~2월) 08:00~23:00 / 종합자료실, 연속간행물실, 디지털자료실 : (월~목) 09:00~22:00, (토~일) 09:00~18:00 / 어린이자료실 : 09:00~18:00",
    "closed_info": "매주 금요일 / 법정공휴일"
  },
  {
    "id": 168,
    "name": "고양시립높빛도서관",
    "code": "141657",
    "address": "경기도 고양시 덕양구 푸른마을로 34-8",
    "tel": "031-8075-9393",
    "fax": "031-8075-4893",
    "latitude": 37.7105651,
    "longitude": 126.9056069,
    "homepage": "https://www.goyanglib.or.kr/MV/index.do",
    "open_hours": "평일: 종합자료실(09:00~22:00), 어린이자료실(09:00~18:00) / 주말 09:00~18:00",
    "closed_info": "매주 금요일"
  },
  {
    "id": 169,
    "name": "고양시립대화도서관",
    "code": "141139",
    "address": "경기도 고양시 일산서구 일산로 689",
    "tel": "031-8075-9130",
    "fax": "031-911-4276",
    "latitude": 37.6809678,
    "longitude": 126.753923,
    "homepage": "https://www.goyanglib.or.kr/MJ/index.do",
    "open_hours": "자료실 화~금 09:00~22:00 / 토,일 09:00~18:00",
    "closed_info": "매주 월요일 / 법정공휴일"
  },
  {
    "id": 170,
    "name": "고양시립덕이도서관",
    "code": "141398",
    "address": "경기도 고양시 일산서구 하이파크로 128",
    "tel": "031-8075-9320",
    "fax": "031-911-2936",
    "latitude": 37.7029746,
    "longitude": 126.754531,
    "homepage": "https://www.goyanglib.or.kr/MN/index.do",
    "open_hours": "열람실 07:00(동절기08:00) / 자료실 09:00",
    "closed_info": "매주 월요일 / 법정공휴일"
  },
  {
    "id": 171,
    "name": "고양시립마두도서관",
    "code": "141055",
    "address": "경기도 고양시 일산동구 일산로 355",
    "tel": "031-8075-9067",
    "fax": "031-901-5894",
    "latitude": 37.6664887,
    "longitude": 126.782103,
    "homepage": "https://www.goyanglib.or.kr/MA/index.do",
    "open_hours": "평일 09:00~22:00 주말 09:00~18:00",
    "closed_info": "매주 금요일 / 법정공휴일"
  },
  {
    "id": 172,
    "name": "고양시립백석도서관",
    "code": "141073",
    "address": "null",
    "tel": "null",
    "fax": "031-901-4621",
    "latitude": 37.6472487,
    "longitude": 126.793775,
    "homepage": "null",
    "open_hours": "null",
    "closed_info": "2026. 3. 까지 휴관(2026.3. 재개관 예정)"
  },
  {
    "id": 173,
    "name": "고양시립별꿈도서관",
    "code": "141635",
    "address": "경기도 고양시 덕양구 고양대로 1937",
    "tel": "031-8075-9305",
    "fax": "031-8075-4893",
    "latitude": 37.6534467,
    "longitude": 126.8519658,
    "homepage": "https://www.goyanglib.or.kr/MQ/index.do",
    "open_hours": "자료실 화~금 10:00~19:00, 토~일 09:00~18:00",
    "closed_info": "매주 월요일 / 법정공휴일"
  },
  {
    "id": 174,
    "name": "고양시립삼송도서관",
    "code": "141555",
    "address": "경기도 고양시 덕양구 덕수천1로 73",
    "tel": "031-8075-9360",
    "fax": "02-381-4590",
    "latitude": 37.6488432,
    "longitude": 126.884639,
    "homepage": "https://www.goyanglib.or.kr/MP/index.do",
    "open_hours": "평일 09:00~22:00, 주말 09:00~18:00",
    "closed_info": "매주 금요일 / 법정공휴일"
  },
  {
    "id": 175,
    "name": "고양시립식사도서관",
    "code": "141388",
    "address": "경기도 고양시 일산동구 위시티2로 43-6",
    "tel": "031-8075-9190",
    "fax": "031-965-5297",
    "latitude": 37.6760845,
    "longitude": 126.815918,
    "homepage": "https://www.goyanglib.or.kr/MM/index.do",
    "open_hours": "자료실 평일 09:00~22:00 (*어린이자료실 09:00~18:00) / 주말 09:00~18:00",
    "closed_info": "매주 금요일 / 법정공휴일"
  },
  {
    "id": 176,
    "name": "고양시립신원도서관",
    "code": "141546",
    "address": "경기도 고양시 덕양구 신원2로 24",
    "tel": "031-8075-9340",
    "fax": "02-371-1380",
    "latitude": 37.6663747,
    "longitude": 126.886347,
    "homepage": "https://www.goyanglib.or.kr/MO/index.do",
    "open_hours": "자료실 평일 09:00~22:00 / 주말 09:00~18:00",
    "closed_info": "매주 월요일 / 법정공휴일"
  },
  {
    "id": 177,
    "name": "고양시립아람누리도서관",
    "code": "141123",
    "address": "경기도 고양시 일산동구 중앙로 1286",
    "tel": "031-8075-9038",
    "fax": "031-901-0294",
    "latitude": 37.6615541,
    "longitude": 126.7745,
    "homepage": "https://www.goyanglib.or.kr/MF/index.do",
    "open_hours": "평일 ( 09:00 ~ 22:00 ) / 주말 ( 09:00 ~ 18:00 )",
    "closed_info": "매주 월요일 / 법정공휴일"
  },
  {
    "id": 178,
    "name": "고양시립원당도서관",
    "code": "141059",
    "address": "-",
    "tel": "-",
    "fax": "031-965-9709",
    "latitude": 37.6562321,
    "longitude": 126.838837,
    "homepage": "https://www.goyanglib.or.kr/MC/index.do",
    "open_hours": "-",
    "closed_info": "재개발에 따른 휴관중(이후 원당복합커뮤니티 센터 내 재개관예정)"
  },
  {
    "id": 206,
    "name": "광명시철산도서관",
    "code": "141405",
    "address": "경기도 광명시 철산로 56",
    "tel": "02-2680-6820",
    "fax": "02-2680-6826",
    "latitude": 37.4769575,
    "longitude": 126.8723412,
    "homepage": "https://gmlib.gm.go.kr/",
    "open_hours": "-",
    "closed_info": "매주 월요일 / 법정공휴일, 도서관 사정으로 임시로 정하는 휴일"
  },
  {
    "id": 179,
    "name": "고양시립일산도서관",
    "code": "141631",
    "address": "경기도 고양시 일산서구 고양대로 586-65",
    "tel": "031-8075-9420",
    "fax": "031-924-6269",
    "latitude": 37.6850421,
    "longitude": 126.7642552,
    "homepage": "https://www.goyanglib.or.kr/MU/index.do",
    "open_hours": "자료실 화~금 09:00~22:00, 토~일 09:00~18:00",
    "closed_info": "매주 월요일 / 법정공휴일"
  },
  {
    "id": 180,
    "name": "고양시립주엽어린이도서관",
    "code": "141124",
    "address": "경기도 고양시 일산서구 주엽로 104",
    "tel": "031-8075-9168",
    "fax": "031-911-3218",
    "latitude": 37.6684857,
    "longitude": 126.756534,
    "homepage": "https://www.goyanglib.or.kr/MG/index.do",
    "open_hours": "9:00~18:00",
    "closed_info": "매주 금요일 / 법정공휴일"
  },
  {
    "id": 181,
    "name": "고양시립풍동도서관",
    "code": "141150",
    "address": "경기도 고양시 일산동구 숲속마을로 108",
    "tel": "031-8075-9148",
    "fax": "031-901-8317",
    "latitude": 37.6705562,
    "longitude": 126.795196,
    "homepage": "https://www.goyanglib.or.kr/ML/index.do",
    "open_hours": "평일 09:00~22:00 / 주말 09:00~18:00",
    "closed_info": "매주 월요일 / 법정공휴일"
  },
  {
    "id": 182,
    "name": "고양시립한뫼도서관",
    "code": "141140",
    "address": "경기도 고양시 일산서구 탄중로 284",
    "tel": "031-8075-9115",
    "fax": "031-975-1952",
    "latitude": 37.6935842,
    "longitude": 126.776286,
    "homepage": "https://www.goyanglib.or.kr/MK/index.do",
    "open_hours": "열람실 : 07:00(동절기 08:00), 자료실 : 09:00",
    "closed_info": "매주 금요일 / 법정공휴일"
  },
  {
    "id": 183,
    "name": "고양시립행신도서관",
    "code": "141018",
    "address": "경기도 고양시 덕양구 행당로33번길 25-6",
    "tel": "031-8075-9240",
    "fax": "031-938-4673",
    "latitude": 37.6207524,
    "longitude": 126.828326,
    "homepage": "https://www.goyanglib.or.kr/MB/index.do",
    "open_hours": "평일 09:00~22:00, 주말 09:00~18:00",
    "closed_info": "매주 월요일 / 법정공휴일"
  },
  {
    "id": 184,
    "name": "고양시립행신어린이도서관",
    "code": "141126",
    "address": "경기도 고양시 덕양구 소원로181번길 42",
    "tel": "031-8075-9278",
    "fax": "031-938-2395",
    "latitude": 37.6147771,
    "longitude": 126.843475,
    "homepage": "https://www.goyanglib.or.kr/MH/index.do",
    "open_hours": "09:00~18:00",
    "closed_info": "매주 금요일 / 법정공휴일"
  },
  {
    "id": 185,
    "name": "고양시립화정도서관",
    "code": "141072",
    "address": "경기도 고양시 덕양구 은빛로77번길 8",
    "tel": "031-8075-9215",
    "fax": "031-965-5093",
    "latitude": 37.637831,
    "longitude": 126.837192,
    "homepage": "https://www.goyanglib.or.kr/ME/index.do",
    "open_hours": "자료실 월~목 09:00~22:00, 토~일 09:00~18:00",
    "closed_info": "매주 금요일 / 법정공휴일"
  },
  {
    "id": 186,
    "name": "고양시립화정어린이도서관",
    "code": "141125",
    "address": "경기도 고양시 덕양구 화신로 323",
    "tel": "031-8075-9299",
    "fax": "031-938-2394",
    "latitude": 37.6328887,
    "longitude": 126.826242,
    "homepage": "https://www.goyanglib.or.kr/MI/index.do",
    "open_hours": "09:00 ~ 18:00",
    "closed_info": "매주 월요일 / 법정공휴일"
  },
  {
    "id": 187,
    "name": "고운남측도서관",
    "code": "150009",
    "address": "세종특별자치시 마음로 64, 고운남측 복합커뮤니티센터 3층",
    "tel": "044-301-7262",
    "fax": "null",
    "latitude": 36.5049652,
    "longitude": 127.235359,
    "homepage": "https://lib.sejong.go.kr/gounsouth/",
    "open_hours": "월 ~ 금요일 : 09:00~22:00, 일요일 : 09:00~18:00",
    "closed_info": "매주 토요일 / 법정공휴일"
  },
  {
    "id": 188,
    "name": "고운동도서관",
    "code": "150004",
    "address": "세종특별자치시 마음로 284, 고운동 복합커뮤니티센터 5층",
    "tel": "044-301-6661",
    "fax": "null",
    "latitude": 36.5197146,
    "longitude": 127.236587,
    "homepage": "https://lib.sejong.go.kr/goun/",
    "open_hours": "월 ~ 금요일 : 09:00~22:00, 토요일 : 09:00~18:00",
    "closed_info": "매주 일요일 / 법정공휴일"
  },
  {
    "id": 189,
    "name": "고촌도서관",
    "code": "141591",
    "address": "경기도 김포시 고촌읍 장차로 14",
    "tel": "031-5186-4850",
    "fax": "031-981-6910",
    "latitude": 37.6032053,
    "longitude": 126.7711481,
    "homepage": "http://www.gimpo.go.kr/lib/index.do",
    "open_hours": "평일 09:00~22:00, 주말 09:00~17:00",
    "closed_info": "매주 금요일 / 일요일을 제외한 법정공휴일"
  },
  {
    "id": 190,
    "name": "고향의봄도서관",
    "code": "148319",
    "address": "경상남도 창원시 의창구 북면 무동서로 67",
    "tel": "055-225-7991",
    "fax": "055-225-4801",
    "latitude": 35.3202121,
    "longitude": 128.5808213,
    "homepage": "https://lib.changwon.go.kr/bm/index_real.php",
    "open_hours": "평일 09:00~22:00, 주말 09:00~18:00",
    "closed_info": "매주 금요일 / 법정공휴일"
  },
  {
    "id": 191,
    "name": "고현초꿈키움도서관",
    "code": "741297",
    "address": "경기도 오산시 남부대로 459",
    "tel": "031-8036-6550",
    "fax": "-",
    "latitude": 37.1336377,
    "longitude": 127.0854297,
    "homepage": "-",
    "open_hours": "평일 09:00~20:00 / 주말 09:00~18:00",
    "closed_info": "매월 둘째주, 넷째주 월요일 / 신정, 설 연휴, 추석 연휴, 설 추석 연휴와 이어지는 토요일, 일요일, 특별한 사유로 필요하다고 인정하는 날"
  },
  {
    "id": 192,
    "name": "고흥군립남부도서관",
    "code": "146035",
    "address": "전라남도 고흥군 도양읍 녹동신항8길 5-4",
    "tel": "061-830-6901",
    "fax": "061-830-5539",
    "latitude": 34.5275467,
    "longitude": 127.1415292,
    "homepage": "https://www.ghlib.go.kr",
    "open_hours": "자료실 09:00~18:00, 종합자료실 개관시간연장(09:00~22:00) / 열람실 09:00~21:00(동절기), 09:00~22:00(하절기)",
    "closed_info": "매주 월요일 / 법정공휴일"
  },
  {
    "id": 193,
    "name": "고흥군립북부도서관",
    "code": "146051",
    "address": "전라남도 고흥군 동강면 동강중촌길 35",
    "tel": "061-830-5951",
    "fax": "061-830-5952",
    "latitude": 34.780904,
    "longitude": 127.3306506,
    "homepage": "https://www.ghlib.go.kr",
    "open_hours": "자료실 09:00~18:00 / 열람실 09:00~21:00(동절기), 09:00~22:00(하절기)",
    "closed_info": "매주 월요일 / 법정공휴일"
  },
  {
    "id": 194,
    "name": "고흥군립중앙도서관",
    "code": "146077",
    "address": "전라남도 고흥군 고흥읍 고흥로 1793",
    "tel": "061-830-6951",
    "fax": "061-830-5930",
    "latitude": 34.609695,
    "longitude": 127.2889664,
    "homepage": "https://www.ghlib.go.kr",
    "open_hours": "자료실 09:00~18:00 / 열람실 09:00~21:00(동절기), 09:00~22:00(하절기)",
    "closed_info": "매주 월요일 / 법정공휴일"
  },
  {
    "id": 195,
    "name": "공릉행복도서관",
    "code": "111512",
    "address": "서울특별시 노원구 동일로179길 22",
    "tel": "02-976-3820",
    "fax": "02-976-3819",
    "latitude": 37.6223104,
    "longitude": 127.0727525,
    "homepage": "https://www.nowonlib.kr",
    "open_hours": "평일 09:00~18:00, 주말 09:00~17:00",
    "closed_info": "매주 일요일 / 법정공휴일"
  },
  {
    "id": 196,
    "name": "공주기적의도서관",
    "code": "144043",
    "address": "충청남도 공주시 무령로 550-53",
    "tel": "041-840-8955",
    "fax": "041-852-1350",
    "latitude": 36.45934,
    "longitude": 127.1266693,
    "homepage": "https://www.gongjulib.go.kr",
    "open_hours": "자료실 평일 09:00~22:00 주말 09:00~18:00 / 열람실 평일 09:00~22:00 주말 09:00~22:00",
    "closed_info": "매주 월요일 / 법정공휴일"
  },
  {
    "id": 197,
    "name": "공주시 웅진도서관",
    "code": "144014",
    "address": "충청남도 공주시 고마나루길 17",
    "tel": "041-840-2205",
    "fax": "041-840-2359",
    "latitude": 36.460818,
    "longitude": 127.1111132,
    "homepage": "https://www.gongjulib.go.kr",
    "open_hours": "1층(평생학습실): 화~일 08:00~22:00, 2층(일반/디지털자료실) 화~금 09:00~22:00 / 토~일 09:00~18:00",
    "closed_info": "매주 월요일 / 법정공휴일"
  },
  {
    "id": 198,
    "name": "과천시정보과학도서관",
    "code": "141062",
    "address": "경기도 과천시 중앙로24",
    "tel": "02-2150-3008",
    "fax": "02-507-8576",
    "latitude": 37.4187291,
    "longitude": 126.9897092,
    "homepage": "http://www.gclib.go.kr",
    "open_hours": "평일 09:00~22:00, 주말 09:00~18:00",
    "closed_info": "매주 금요일 / 법정공휴일, 개관기념일"
  },
  {
    "id": 199,
    "name": "관산작은도서관",
    "code": "141202",
    "address": "경기도 고양시 덕양구 통일로 789, 2층",
    "tel": "031-962-1969",
    "fax": "-",
    "latitude": 37.6879734,
    "longitude": 126.8625188,
    "homepage": "https://www.goyanglib.or.kr",
    "open_hours": "월~금 9:00~18:00",
    "closed_info": "매주 토요일, 일요일 / 법정공휴일, 매월 세번째 월요일 휴관"
  },
  {
    "id": 200,
    "name": "관악중앙도서관",
    "code": "111045",
    "address": "서울특별시 관악구 신림로3길 35",
    "tel": "02-828-5700",
    "fax": "02-828-5810",
    "latitude": 37.4671252,
    "longitude": 126.9448168,
    "homepage": "http://lib.gwanak.go.kr/",
    "open_hours": "09시~22시(평일), 9시~17시(주말)",
    "closed_info": "매주 월요일 / 국가공휴일(단, 일요일과 법정공휴일이 겹칠 경우 휴관), 도서관 사정으로 휴관하는 날"
  },
  {
    "id": 201,
    "name": "관평도서관",
    "code": "130023",
    "address": "대전광역시 유성구 테크노4로 131",
    "tel": "042-716-0350",
    "fax": "042-716-0359",
    "latitude": 36.4262899,
    "longitude": 127.3897975,
    "homepage": "https://lib.yuseong.go.kr/",
    "open_hours": "어린이자료실 9:00~18:00(화~일), 종합자료실 9:00~22:00(화~금), 9:00~18:00(토~일), 열람실 8:00~22:00(화~일)",
    "closed_info": "매주 월요일 / 국경일, 정부에서 정한 공휴일, 도서관 사정으로 휴관하는 날 / 내,외벽 도색 공사에 따른 임시휴관(2024. 4. 29.(월)~ 5. 8.(수), 10일간)"
  },
  {
    "id": 202,
    "name": "광남작은도서관",
    "code": "741089",
    "address": "경기도 광주시 회안대로 350-17",
    "tel": "031-760-8745",
    "fax": "031-760-1435",
    "latitude": 37.3855352,
    "longitude": 127.2365257,
    "homepage": "https://lib.gjcity.go.kr/slib",
    "open_hours": "화~일(주6일) 09:00~21:00, 토~일 09:00~18:00",
    "closed_info": "매주 월요일 / 법정공휴일"
  },
  {
    "id": 203,
    "name": "광명시광명도서관",
    "code": "141080",
    "address": "경기도 광명시 원광명안로 48",
    "tel": "02-2680-6541",
    "fax": "02-2680-6531",
    "latitude": 37.4653018,
    "longitude": 126.8513075,
    "homepage": "https://gmlib.gm.go.kr/",
    "open_hours": "-",
    "closed_info": "매주 금요일 / 법정공휴일, 도서관 사정으로 임시로 정하는 휴일"
  },
  {
    "id": 204,
    "name": "광명시소하도서관",
    "code": "141561",
    "address": "경기도 광명시 소하일로 7",
    "tel": "02-2680-0900",
    "fax": "02-2680-0919",
    "latitude": 37.4454883,
    "longitude": 126.8880089,
    "homepage": "https://gmlib.gm.go.kr/",
    "open_hours": "-",
    "closed_info": "매주 월요일 / 법정공휴일, 도서관 사정으로 임시로 정하는 휴일"
  },
  {
    "id": 205,
    "name": "광명시연서도서관",
    "code": "141613",
    "address": "경기도 광명시 연서일로 10",
    "tel": "02-2680-6630",
    "fax": "02-2680-6640",
    "latitude": 37.482755,
    "longitude": 126.8646514,
    "homepage": "https://gmlib.gm.go.kr",
    "open_hours": "평일 09:00~22:00, 주말 09:00~17:00",
    "closed_info": "매주 금요일 / 법정공휴일"
  },
  {
    "id": 207,
    "name": "광명시충현도서관",
    "code": "141155",
    "address": "경기도 광명시 충현로42번길 19",
    "tel": "02-2680-6111",
    "fax": "02-2680-6113",
    "latitude": 37.4340114,
    "longitude": 126.8847294,
    "homepage": "https://gmlib.gm.go.kr/",
    "open_hours": "-",
    "closed_info": "매주 금요일 / 법정공휴일, 도서관 사정으로 임시로 정하는 휴일"
  },
  {
    "id": 208,
    "name": "광명시하안도서관",
    "code": "141019",
    "address": "경기도 광명시 철망산로 46",
    "tel": "02-2680-2871",
    "fax": "02-2680-2877",
    "latitude": 37.4676204,
    "longitude": 126.8735159,
    "homepage": "https://gmlib.gm.go.kr/",
    "open_hours": "-",
    "closed_info": "매주 금요일 / 법정공휴일(공휴일과 일요일이 겹칠 경우 휴관), 도서관 사정으로 임시로 정하는 휴일"
  },
  {
    "id": 209,
    "name": "광산구립신가도서관",
    "code": "129001",
    "address": "광주광역시 광산구 신가로40번길 24",
    "tel": "062-960-8548",
    "fax": "062-960-8307",
    "latitude": 35.1827519,
    "longitude": 126.8285849,
    "homepage": "http://lib.gwangsan.go.kr",
    "open_hours": "-",
    "closed_info": "2021. 12. 15.(수) ~ 공사 종료 시까지 (※ 공사 진행 상황에 따라 휴관기간은 변동될 수 있음)"
  },
  {
    "id": 210,
    "name": "광산구립운남어린이도서관",
    "code": "129005",
    "address": "광주광역시 광산구 목련로217번길 10",
    "tel": "062-960-8302",
    "fax": "062-960-8309",
    "latitude": 35.1730207,
    "longitude": 126.8219798,
    "homepage": "http://lib.gwangsan.go.kr",
    "open_hours": "(평일) 09:00~18:00 (주말) 09:00~17:00",
    "closed_info": "매월 둘째주, 넷째주 월요일 / 법정공휴일"
  },
  {
    "id": 211,
    "name": "광산구립이야기꽃도서관",
    "code": "129223",
    "address": "광주광역시 광산구 선운중앙로67번길 6",
    "tel": "062-960-6818",
    "fax": "062-960-3764",
    "latitude": 35.1484289,
    "longitude": 126.7798985,
    "homepage": "http://lib.gwangsan.go.kr",
    "open_hours": "(평일) 09:00~18:00 (주말) 09:00~17:00",
    "closed_info": "매월 첫째주, 셋째주 월요일 / 법정공휴일"
  },
  {
    "id": 212,
    "name": "광산구립장덕도서관",
    "code": "129190",
    "address": "광주광역시 광산구 풍영로 179",
    "tel": "062-960-3997",
    "fax": "062-960-3969",
    "latitude": 35.1910934,
    "longitude": 126.8140936,
    "homepage": "http://lib.gwangsan.go.kr",
    "open_hours": "(평일) 09:00~18:00 (주말) 09:00~17:00",
    "closed_info": "매월 첫째주, 셋째주 월요일 / 법정공휴일"
  },
  {
    "id": 213,
    "name": "광산구립첨단도서관",
    "code": "129002",
    "address": "광주광역시 광산구 임방울대로 673-12",
    "tel": "062-960-8298",
    "fax": "062-974-0760",
    "latitude": 35.2167923,
    "longitude": 126.832239,
    "homepage": "http://lib.gwangsan.go.kr",
    "open_hours": "(평일) 09:00~18:00 (주말) 09:00~17:00",
    "closed_info": "매월 둘째주, 넷째주 월요일 / 법정공휴일"
  },
  {
    "id": 214,
    "name": "광양광영도서관",
    "code": "146185",
    "address": "전라남도 광양시 광영로 74, 4-7층",
    "tel": "061-797-3768",
    "fax": "061-797-4154",
    "latitude": 34.9622046,
    "longitude": 127.7206014,
    "homepage": "https://lib.gwangyang.go.kr",
    "open_hours": "평일 09:00~18:00, 주말 09:00~17:00",
    "closed_info": "매월 첫번째 금요일 / 법정공휴일"
  },
  {
    "id": 215,
    "name": "광양금호도서관",
    "code": "146181",
    "address": "전라남도 광양시 초원길 42",
    "tel": "061-797-3830",
    "fax": "-",
    "latitude": 34.937951,
    "longitude": 127.722018,
    "homepage": "https://lib.gwangyang.go.kr",
    "open_hours": "평일 09:00~22:00, 주말 09:00~17:00",
    "closed_info": "매월 둘째주 금요일 / 법정공휴일"
  },
  {
    "id": 216,
    "name": "광양용강도서관",
    "code": "146049",
    "address": "전라남도 광양시 광양읍 기두5길 5",
    "tel": "061-797-3869",
    "fax": "061-797-4154",
    "latitude": 34.9741298,
    "longitude": 127.607381,
    "homepage": "http://lib.gwangyang.go.kr",
    "open_hours": "자료실 월~금 09:00~22:00 / 토~일 09:00~17:00",
    "closed_info": "매월 세번째 금요일 / 일요일을 제외한 법정공휴일"
  },
  {
    "id": 217,
    "name": "광양중마도서관",
    "code": "146050",
    "address": "전라남도 광양시 광장로 14",
    "tel": "061-797-2430",
    "fax": "061-797-4154",
    "latitude": 34.9374495,
    "longitude": 127.6905967,
    "homepage": "http://lib.gwangyang.go.kr",
    "open_hours": "자료실 월~금 09:00~22:00 / 토~일 09:00~17:00 / 열람실 08:00~22:00",
    "closed_info": "매월 네번째 금요일 / 일요일을 제외한 법정공휴일 / 9/28~9/30(추석 연휴), 10/2(임시공휴일), 10/3(개천절), 10/9(한글날) 전체 휴무, 단 10/1(일)은 개관"
  },
  {
    "id": 218,
    "name": "광양중앙도서관",
    "code": "146024",
    "address": "전라남도 광양시 광양읍 향교길 9-30",
    "tel": "061-797-2530",
    "fax": "061-797-4154",
    "latitude": 34.9802034,
    "longitude": 127.5875486,
    "homepage": "http://lib.gwangyang.go.kr",
    "open_hours": "자료실 월~금 09:00~22:00 / 토~일 09:00~17:00 / 열람실 8:00~22:00",
    "closed_info": "매월 두번째 금요일 / 일요일을 제외한 법정공휴일"
  },
  {
    "id": 219,
    "name": "광양희망도서관",
    "code": "146177",
    "address": "전라남도 광양시 광양읍 인덕로 1022",
    "tel": "061-797-4700",
    "fax": "061-797-4154",
    "latitude": 34.9751297,
    "longitude": 127.5805497,
    "homepage": "http://lib.gwangyang.go.kr",
    "open_hours": "자료실 월~금 10:00~19:00 / 토~일 09:00~17:00",
    "closed_info": "매월 첫번째, 세번째 금요일 / 일요일을 제외한 법정 공휴일"
  },
  {
    "id": 220,
    "name": "광주 북구 신용도서관",
    "code": "129227",
    "address": "광주광역시 북구 첨단연신로107번길 24",
    "tel": "062-410-6853",
    "fax": "062-510-1579",
    "latitude": 35.2076447,
    "longitude": 126.8617291,
    "homepage": "https://lib.bukgu.gwangju.kr",
    "open_hours": "(자료실) 평일 09:00~18:00, 주말 09:00~17:00 (학습실) 평일 및 주말 07:00~22:00",
    "closed_info": "매월 둘째주, 넷째주 월요일 / 법정공휴일, 기타 도서관 필요에 의해 정하는 날"
  },
  {
    "id": 221,
    "name": "광주 북구 양산도서관",
    "code": "129225",
    "address": "광주광역시 북구 하서로 299",
    "tel": "062-410-8242",
    "fax": "null",
    "latitude": 37.6036883,
    "longitude": 127.0226004,
    "homepage": "https://lib.bukgu.gwangju.kr",
    "open_hours": "평일 09:00~18:00, 주말 09:00~17:00",
    "closed_info": "매월 첫째주, 셋째주 월요일 / 법정공휴일"
  },
  {
    "id": 222,
    "name": "광주 북구 운암도서관",
    "code": "129131",
    "address": "광주광역시 북구 북문대로 118",
    "tel": "062-410-6960",
    "fax": "062-510-1587",
    "latitude": 35.1801822,
    "longitude": 126.8753206,
    "homepage": "https://lib.bukgu.gwangju.kr",
    "open_hours": "종합자료실,어린이실-9:00~18:00(토,일요일-17:00)/학습실-07:00~22:00",
    "closed_info": "매월 둘째주, 넷째주 월요일 / 법정공휴일, 기타 도서관 필요에 의해 정하는 날"
  },
  {
    "id": 223,
    "name": "광주 북구 일곡도서관",
    "code": "124010",
    "address": "광주광역시 북구 일곡로 55",
    "tel": "062-410-6895",
    "fax": "062-410-8294",
    "latitude": 35.208023,
    "longitude": 126.895467,
    "homepage": "https://lib.bukgu.gwangju.kr",
    "open_hours": "자료실 평일09:00~ 18:00, 주말 09:00~17:00, 열람실 07:00~22:00",
    "closed_info": "매월 첫째주, 셋째주 월요일 / 법정공휴일, 기타 도서관 필요에 의해 정하는 날"
  },
  {
    "id": 224,
    "name": "광주 북구 중흥도서관",
    "code": "129226",
    "address": "광주광역시 북구 당뫼로 39",
    "tel": "062-410-6860",
    "fax": "062-510-1579",
    "latitude": 35.169805,
    "longitude": 126.9144483,
    "homepage": "https://lib.bukgu.gwangju.kr",
    "open_hours": "(자료실) 평일 09:00~18:00, 주말 09:00~17:00 (학습실) 07:00~22:00",
    "closed_info": "매월 첫째주, 셋째주 월요일 / 법정공휴일"
  },
  {
    "id": 225,
    "name": "광주 서구 문화의숲도서관",
    "code": "124009",
    "address": "광주광역시 서구 마재로 3",
    "tel": "062-654-4306",
    "fax": "062-654-4310",
    "latitude": 35.1308667,
    "longitude": 126.8603824,
    "homepage": "https://www.seogu.gwangju.kr/library/",
    "open_hours": "종합자료실 평일 9:00~18:00 / 주말 9:00~17:00, 어린이자료실 평일 9:00~18:00 / 주말 9:00~17:00",
    "closed_info": "매월 첫째주, 셋째주 월요일 / 일요일을 제외한 법정공휴일"
  },
  {
    "id": 226,
    "name": "광주 서구 상록도서관",
    "code": "129222",
    "address": "광주광역시 서구 상무대로1171번길 11",
    "tel": "062-350-4580",
    "fax": "062-351-6200",
    "latitude": 35.1551865,
    "longitude": 126.8889039,
    "homepage": "https://www.seogu.gwangju.kr/library/",
    "open_hours": "지하 1층 어린이자료실, 2층 종합자료실 운영시간 - 9:00~18:00 (평일) 9:00~17:00(주말), 3층 열람실 - (3월~10월) 7:00~22:00, (11월~2월) 8:00~22:00",
    "closed_info": "매월 둘째주, 넷째주 월요일 / 일요일을 제외한 법정공휴일"
  },
  {
    "id": 227,
    "name": "광주 서구 어린이생태학습도서관",
    "code": "129004",
    "address": "광주광역시 서구 풍암공원로 8",
    "tel": "062-350-4584",
    "fax": "062-652-9247",
    "latitude": 35.1297987,
    "longitude": 126.8818583,
    "homepage": "https://www.seogu.gwangju.kr/library/",
    "open_hours": "월~금 09:00 ~ 18:00 토,일 09:00 ~ 17:00",
    "closed_info": "매월 두번째, 네번째 월요일 / 일요일을 제외한 법정공휴일"
  },
  {
    "id": 228,
    "name": "광주광역시교육청금호평생교육관",
    "code": "124007",
    "address": "광주광역시 남구 중앙로 15",
    "tel": "062-360-6600",
    "fax": "062-360-6637",
    "latitude": 35.1453424,
    "longitude": 126.9006562,
    "homepage": "http://lib.gen.go.kr/geumho",
    "open_hours": "자료실: 평일 09:00~18:00, 주말 09:00~17:00 / 열람실 07:00~22:00(법정공휴일: 09:00~18:00)",
    "closed_info": "매월 첫째주, 셋째주 월요일 / 설날&middot;추석 당일, 개관기념일(4.2.)"
  },
  {
    "id": 229,
    "name": "광주광역시교육청송정다가치문화도서관",
    "code": "124001",
    "address": "광주광역시 광산구 송정공원로 8-13",
    "tel": "062-940-8900",
    "fax": "062-944-9411",
    "latitude": 35.1453164,
    "longitude": 126.7996039,
    "homepage": "http://lib.gen.go.kr/songjung",
    "open_hours": "자료실, 간행물실: 평일 09:00~18:00, 주말 09:00~17:00 / 열람실, 휴게실: 07:00~22:00(법정공휴일: 09:00~18:00)",
    "closed_info": "매월 둘째주, 넷째주 월요일 / 설날&middot;추석 당일, 개관기념일(4.10.)"
  },
  {
    "id": 230,
    "name": "광주광역시교육청중앙도서관",
    "code": "124002",
    "address": "광주광역시 동구 장동로 23-16",
    "tel": "062-607-1300",
    "fax": "062-223-1366",
    "latitude": 35.1485032,
    "longitude": 126.9253348,
    "homepage": "http://lib.gen.go.kr/jungang",
    "open_hours": "자료실: 평일 09:00~18:00, 주말 09:00~17:00(법정공휴일 휴실)",
    "closed_info": "매월 둘째주, 넷째주 월요일 / 설&middot;추석 당일, 개관기념일(7.2.)"
  },
  {
    "id": 231,
    "name": "광주광역시교육청중앙도서관 분관 최상준도서관",
    "code": "129221",
    "address": "광주광역시 북구 설죽로 315번길 8",
    "tel": "062-576-8106",
    "fax": "062-576-8110",
    "latitude": 35.1876539,
    "longitude": 126.897735,
    "homepage": "http://lib.gen.go.kr/seokbong",
    "open_hours": "자료실: 평일 09:00~18:00, 주말 09:00~17:00 / 기념관&middot;전시실: 10:00~17:00 / 학습실: 07:00~22:00(법정공휴일 09:00~18:00)",
    "closed_info": "매월 둘째주, 넷째주 월요일 / 설날&middot;추석 당일, 개관기념일(7.2.)"
  },
  {
    "id": 232,
    "name": "광주광역시교육청학생교육문화회관",
    "code": "124011",
    "address": "광주광역시 서구 상무민주로 61",
    "tel": "062-380-8800",
    "fax": "062-380-8879",
    "latitude": 35.1570531,
    "longitude": 126.858156,
    "homepage": "http://lib.gen.go.kr/gecs",
    "open_hours": "자료실: 평일 09:00~18:00, 주말 09:00~17:00 / 1층 열린공간: 08:00~21:30",
    "closed_info": "매월 둘째주, 넷째주 월요일 / 일요일을 제외한 관공서의 공휴일(일요일과 겹치면 휴관), 개관기념일(9.3.)"
  },
  {
    "id": 233,
    "name": "광주광역시교육청학생독립운동기념회관",
    "code": "124005",
    "address": "광주광역시 서구 학생독립로 30",
    "tel": "062-221-5500",
    "fax": "062-221-5599",
    "latitude": 35.1416737,
    "longitude": 126.8659601,
    "homepage": "http://lib.gen.go.kr/student",
    "open_hours": "자료실: 평일 09:00~18:00, 주말 09:00~17:00 / 학습실 07:00~22:00(법정공휴일 09:00~18:00)",
    "closed_info": "매월 첫째주, 셋째주 월요일 / 설&middot;추석 연휴, 개관기념일(11.3.)"
  },
  {
    "id": 234,
    "name": "광주광역시립무등도서관",
    "code": "124003",
    "address": "광주광역시 북구 면앙로 130",
    "tel": "062-613-7753",
    "fax": "062-613-7709",
    "latitude": 35.1765283,
    "longitude": 126.9253482,
    "homepage": "https://citylib.gwangju.go.kr/main",
    "open_hours": "종합자료실 09:00~22:00(주말 17:00), 어린이실 09:00~18:00(주말 17:00), 열람실 07:00~22:00",
    "closed_info": "매월 둘째주, 넷째주 월요일 / 관공서 공휴일, 도서관 사정으로 관장이 지정한 날"
  },
  {
    "id": 235,
    "name": "광주광역시립사직도서관",
    "code": "124004",
    "address": "광주광역시 남구 제중로 56",
    "tel": "062-613-7783",
    "fax": "062-613-7769",
    "latitude": 35.1395202,
    "longitude": 126.9139332,
    "homepage": "https://citylib.gwangju.go.kr/main",
    "open_hours": "종합자료실 09:00~22:00(주말 17:00), 어린이실 09:00~18:00(주말 17:00), 열람실 07:00~22:00",
    "closed_info": "매월 첫째주, 셋째주 월요일 / 관공서 공휴일, 도서관 사정으로 관장이 지정한 날"
  },
  {
    "id": 236,
    "name": "광주광역시립산수도서관",
    "code": "124008",
    "address": "광주광역시 동구 경양로 355",
    "tel": "062-613-7831",
    "fax": "062-613-7809",
    "latitude": 35.1543981,
    "longitude": 126.9284698,
    "homepage": "https://citylib.gwangju.go.kr/main",
    "open_hours": "종합자료실 09:00~22:00(주말 17:00), 어린이실 09:00~18:00(주말 17:00), 열람실 07:00~22:00",
    "closed_info": "매월 첫째주, 셋째주 월요일 / 관공서 공휴일, 도서관 사정으로 관장이 지정한 날"
  },
  {
    "id": 237,
    "name": "광주남구문화정보도서관",
    "code": "124012",
    "address": "광주광역시 남구 봉선로 208",
    "tel": "062-607-2524",
    "fax": "062-654-8962",
    "latitude": 35.1220332,
    "longitude": 126.9175553,
    "homepage": "http://lib.namgu.gwangju.kr/",
    "open_hours": "자료실(평일) : 09:00~18:00, 자료실(주말) : 09:00~17:00, 열람실(동절기) : 08:00~22:00, 열람실(하절기) : 07:00~22:00",
    "closed_info": "매월 둘째주, 넷째주 월요일 / 관공서 공휴일(공휴일이 토요일, 일요일과 겹칠 경우 휴관), 도서관 사정으로 관장이 지정한 날"
  },
  {
    "id": 238,
    "name": "광주남구청소년도서관",
    "code": "129224",
    "address": "광주광역시 남구 제석로 100",
    "tel": "062-904-2541",
    "fax": "062-674-6070",
    "latitude": 35.1207747,
    "longitude": 126.9071242,
    "homepage": "https://lib.namgu.gwangju.kr/",
    "open_hours": "청소년자료실: 평일 09:00~22:00, 주말 09:00~17:00 / 어린이자료실: 평일 09:00~18:00, 주말 09:00~17:00",
    "closed_info": "매주 첫째주, 셋째주 월요일 / 법정공휴일"
  },
  {
    "id": 239,
    "name": "광주남구푸른길도서관",
    "code": "129219",
    "address": "광주광역시 남구 금당로 140",
    "tel": "062-607-2531",
    "fax": "062-651-7640",
    "latitude": 35.1292558,
    "longitude": 126.8951485,
    "homepage": "http://lib.namgu.gwangju.kr/",
    "open_hours": "평일 : 오전9시~오후6시 / 주말 : 오전9시~오후5시",
    "closed_info": "매주 월요일 / 관공서 공휴일(공휴일이 토요일, 일요일과 겹칠 경우 휴관), 도서관 사정으로 관장이 지정한 날"
  },
  {
    "id": 240,
    "name": "광주시립곤지암도서관",
    "code": "141235",
    "address": "경기도 광주시 곤지암읍 곤지암로11번길 47",
    "tel": "031-760-5666",
    "fax": "031-760-1435",
    "latitude": 37.3489171,
    "longitude": 127.3410147,
    "homepage": "https://lib.gjcity.go.kr/gj",
    "open_hours": "열람실(08시~22시), 문헌자료실(09시~22시,토&middot;일 09시~18시), 어린이자료실/전자정보실(09시~18시), 3층 휴게실(09시~20시)",
    "closed_info": "매주 월요일 / 법정공휴일"
  },
  {
    "id": 241,
    "name": "광주시립능평도서관",
    "code": "141576",
    "address": "경기도 광주시 창뜰아랫길 6",
    "tel": "031-760-5912",
    "fax": "031-760-1435",
    "latitude": 37.3496999,
    "longitude": 127.1671923,
    "homepage": "https://lib.gjcity.go.kr/np",
    "open_hours": "운영시간 열람실(08시~22시/휴관일 전체휴관), 문헌자료실(09시~22시,토&middot;일 09시~18시)",
    "closed_info": "매주 월요일 / 법정공휴일"
  },
  {
    "id": 242,
    "name": "광주시립오포도서관",
    "code": "141236",
    "address": "경기도 광주시 오포읍 오포로 885",
    "tel": "031-760-5697",
    "fax": "031-760-1435",
    "latitude": 37.3692382,
    "longitude": 127.2312356,
    "homepage": "https://lib.gjcity.go.kr/op",
    "open_hours": "열람실(08시~23시/휴관일 09시~18시), 문헌자료실(09시~22시,토·일 09시~18시)",
    "closed_info": "매주 금요일 / 법정공휴일"
  },
  {
    "id": 243,
    "name": "광주시립중앙도서관",
    "code": "141114",
    "address": "경기도 광주시 문화로 82",
    "tel": "031-760-5678",
    "fax": "031-760-1435",
    "latitude": 37.4105616,
    "longitude": 127.2528784,
    "homepage": "https://lib.gjcity.go.kr",
    "open_hours": "열람실(멀티미디어실) 08~22시, 문헌자료실 평일 09~ 22시, 주말 09~18시, 어린이자료실 09~18시 / 휴관일, 공휴일, 신정, 구정(설날) 및 추석 연휴 기간에는 전체(열람실 포함) 휴관 / 중앙도서관은 월요일에도 열람실1, 열람실2, 멀티미디어실 운영 (운영시간 09~18시)",
    "closed_info": "매주 월요일 / 법정공휴일"
  },
  {
    "id": 244,
    "name": "광주시립초월도서관",
    "code": "141512",
    "address": "경기도 광주시 초월읍 무들로 3-26",
    "tel": "031-760-5688",
    "fax": "031-760-1435",
    "latitude": 37.3870605,
    "longitude": 127.2909196,
    "homepage": "https://lib.gjcity.go.kr/cw",
    "open_hours": "열람실(08시~22시/휴관일 09시~18시), 문헌자료실(09시~22시,토·일 09시~18시)",
    "closed_info": "매주 금요일 / 법정공휴일"
  },
  {
    "id": 245,
    "name": "광진정보도서관",
    "code": "111036",
    "address": "서울특별시 광진구 아차산로78길 90",
    "tel": "02-3437-5092",
    "fax": "02-3437-0165",
    "latitude": 37.5510185,
    "longitude": 127.1105699,
    "homepage": "http://www.gwangjinlib.seoul.kr/",
    "open_hours": "평일/자료실 09:00~22:00 (어린이실/미디어자료실 ~18:00), 열람실 07:00~22:00, 주말/자료실 09:00~18:00, 열람실 07:00~22:00",
    "closed_info": "매월 둘째주, 넷째주 화요일 / 국경일, 일요일을 제외한 국가지정공휴일, 임시공휴일(단, 일요일과 겹치는 경우 휴관), 장서 점검 및 관장이 필요하다고 인정하는 날"
  },
  {
    "id": 246,
    "name": "광천공공도서관",
    "code": "144033",
    "address": "충청남도 홍성군 광천읍 광천로 342",
    "tel": "041-630-9573",
    "fax": "041-630-1408",
    "latitude": 36.4959512,
    "longitude": 126.6199846,
    "homepage": "https://hongseong.go.kr/gclib.do",
    "open_hours": "평일 09:00~21:00, 주말 09:00~18:00",
    "closed_info": "매주 월요일 / 법정공휴일"
  },
  {
    "id": 247,
    "name": "괴산교육도서관",
    "code": "143001",
    "address": "충청북도 괴산군 괴산읍 읍내로12길 38",
    "tel": "043-833-0319",
    "fax": "043-833-3221",
    "latitude": 36.8109221,
    "longitude": 127.7920861,
    "homepage": "http://www.gselib.go.kr/",
    "open_hours": "자료실 09:00~18:00, 열람실 평일 09:00~21:00 주말 09:00~18:00",
    "closed_info": "매주 월요일 / 공휴일(공휴일이 일요일과 중복될 경우 휴관)"
  },
  {
    "id": 248,
    "name": "교동골작은도서관",
    "code": "145133",
    "address": "전북특별자치도 김제시 동서1길 9-24",
    "tel": "063-547-0431",
    "fax": "-",
    "latitude": 35.7969055,
    "longitude": 126.8797427,
    "homepage": "https://gjl.gimje.go.kr/",
    "open_hours": "평일 09:00~18:00",
    "closed_info": "매주 토요일, 일요일 / 공휴일"
  },
  {
    "id": 249,
    "name": "구갈희망누리도서관",
    "code": "141129",
    "address": "경기도 용인시 기흥구 갈곡로12번길 1",
    "tel": "031-6193-1465",
    "fax": "-",
    "latitude": 37.2726108,
    "longitude": 127.13032,
    "homepage": "http://lib.yongin.go.kr/gugal/",
    "open_hours": "-",
    "closed_info": "-"
  },
  {
    "id": 250,
    "name": "구래작은도서관",
    "code": "741008",
    "address": "경기도 김포시 김포한강9로115번길 25, 2층",
    "tel": "031-5186-4837",
    "fax": "-",
    "latitude": 37.2937629,
    "longitude": 127.0000255,
    "homepage": "http://www.gimpo.go.kr/lib/index.do",
    "open_hours": "10:00~18:00",
    "closed_info": "매주 토요일, 일요일 / 법정공휴일 등"
  },
  {
    "id": 251,
    "name": "구례군 매천도서관",
    "code": "146040",
    "address": "전라남도 구례군 구례읍 봉성로 38",
    "tel": "061-780-8156",
    "fax": "061-783-7441",
    "latitude": 35.2025,
    "longitude": 127.4627778,
    "homepage": "https://lib.gurye.go.kr/library",
    "open_hours": "09:00~22:00(자료실 평일 09:00~18:00, 주말 09:00~17:00)",
    "closed_info": "매주 금요일 / 법정공휴일"
  },
  {
    "id": 276,
    "name": "구즉도서관",
    "code": "125013",
    "address": "대전광역시 유성구 와룡로37번길 20",
    "tel": "042-611-6510",
    "fax": "042-611-2665",
    "latitude": 36.4294702,
    "longitude": 127.3805883,
    "homepage": "https://lib.yuseong.go.kr/",
    "open_hours": "화요일-일요일 08:00~22:00",
    "closed_info": "매주 월요일 / 국경일, 정부에서 정한 공휴일, 도서관 사정으로 휴관하는 날"
  },
  {
    "id": 252,
    "name": "구로기적의도서관",
    "code": "111489",
    "address": "서울특별시 구로구 구로중앙로40길 24",
    "tel": "02-2632-8878",
    "fax": "02-2632-8879",
    "latitude": 37.5071053,
    "longitude": 126.8775035,
    "homepage": "https://lib.guro.go.kr",
    "open_hours": "평일 - 어린이 자료실 10:00~19:00, 청소년가족자료실 10:00~20:00 / 주말 10:00~17:00",
    "closed_info": "매주 월요일 / 법정공휴일, 기타 도서관 사정에 의한 임시 휴관일"
  },